[
  {
    "osm_id": 286566622,
    "osm_type": "node",
    "name": "Geitenboerderij Ridammerhoeve",
    "amenity": "cafe",
    "lat": 52.3128478,
    "lng": 4.8244491,
    "address": null,
    "city": null,
    "website": "https://www.geitenboerderij.nl",
    "phone": null,
    "cuisine": "coffee_shop",
    "outdoor_seating": null,
    "wheelchair": null,
    "opening_hours": null
  },
  {
    "osm_id": 412746154,
    "osm_type": "node",
    "name": "Silversant",
    "amenity": "restaurant",
    "lat": 52.2934599,
    "lng": 4.8333708,
    "address": "Noorddammerlaan 119",
    "city": "Amstelveen",
    "website": "https://www.silversant.nl",
    "phone": null,
    "cuisine": null,
    "outdoor_seating": null,
    "wheelchair": "limited",
    "opening_hours": "Su-Th 12:00-02:00; Fr 12:00-03:00; Sa off"
  },
  {
    "osm_id": 579575549,
    "osm_type": "node",
    "name": "HO-FA",
    "amenity": "restaurant",
    "lat": 52.2970419,
    "lng": 4.8543092,
    "address": "Van der Hooplaan 23",
    "city": "Amstelveen",
    "website": "https://www.hofa-amstelveen.nl/",
    "phone": null,
    "cuisine": "chinese",
    "outdoor_seating": null,
    "wheelchair": "limited",
    "opening_hours": null
  },
  {
    "osm_id": 582753958,
    "osm_type": "node",
    "name": "Abina",
    "amenity": "restaurant",
    "lat": 52.3114077,
    "lng": 4.8465739,
    "address": "Amsterdamseweg 193",
    "city": "Amstelveen",
    "website": "https://abina.nl",
    "phone": null,
    "cuisine": "regional",
    "outdoor_seating": null,
    "wheelchair": null,
    "opening_hours": "Mo-Th 06:00-24:00, Fr 06:00-02:00, Sa 08:00-02:00, Su 08:00-24:00"
  },
  {
    "osm_id": 582753959,
    "osm_type": "node",
    "name": "Pane e Vino",
    "amenity": "restaurant",
    "lat": 52.3109584,
    "lng": 4.8471397,
    "address": "Amsterdamseweg 172",
    "city": "Amstelveen",
    "website": null,
    "phone": null,
    "cuisine": "italian",
    "outdoor_seating": null,
    "wheelchair": null,
    "opening_hours": null
  },
  {
    "osm_id": 582756623,
    "osm_type": "node",
    "name": "Kibboets",
    "amenity": "fast_food",
    "lat": 52.2930939,
    "lng": 4.8612745,
    "address": "Augustinuspark 26",
    "city": "Amstelveen",
    "website": null,
    "phone": null,
    "cuisine": null,
    "outdoor_seating": null,
    "wheelchair": null,
    "opening_hours": null
  },
  {
    "osm_id": 583527878,
    "osm_type": "node",
    "name": "Taste of Szechuan",
    "amenity": "restaurant",
    "lat": 52.2815997,
    "lng": 4.8269381,
    "address": null,
    "city": null,
    "website": "https://www.chinees-westwijk.nl/",
    "phone": null,
    "cuisine": "chinese",
    "outdoor_seating": null,
    "wheelchair": null,
    "opening_hours": null
  },
  {
    "osm_id": 599622997,
    "osm_type": "node",
    "name": "Alexandros",
    "amenity": "restaurant",
    "lat": 52.3131613,
    "lng": 4.8753934,
    "address": "Kostverlorenhof 48",
    "city": "Amstelveen",
    "website": "https://www.restaurantalexandros.nl",
    "phone": null,
    "cuisine": "greek",
    "outdoor_seating": null,
    "wheelchair": null,
    "opening_hours": null
  },
  {
    "osm_id": 599623014,
    "osm_type": "node",
    "name": "Yu Woah",
    "amenity": "restaurant",
    "lat": 52.313081,
    "lng": 4.8749428,
    "address": "Kostverlorenhof 56",
    "city": "Amstelveen",
    "website": "http://www.yuwoah-amstelveen.nl",
    "phone": null,
    "cuisine": "chinese",
    "outdoor_seating": null,
    "wheelchair": null,
    "opening_hours": null
  },
  {
    "osm_id": 637807269,
    "osm_type": "node",
    "name": "Cantina del Corazón",
    "amenity": "restaurant",
    "lat": 52.2591251,
    "lng": 4.8727106,
    "address": "Amsteldijk Zuid 162",
    "city": "Amstelveen",
    "website": "https://www.cantinadelcorazon.nl/",
    "phone": null,
    "cuisine": "mexican",
    "outdoor_seating": null,
    "wheelchair": null,
    "opening_hours": null
  },
  {
    "osm_id": 638383976,
    "osm_type": "node",
    "name": "Fumi",
    "amenity": "restaurant",
    "lat": 52.3183612,
    "lng": 4.8753794,
    "address": "Prof. E.M. Meijerslaan 6",
    "city": "Amstelveen",
    "website": "https://fumi-amstelveen.nl/",
    "phone": "+31 20 3455489",
    "cuisine": "asian",
    "outdoor_seating": null,
    "wheelchair": null,
    "opening_hours": "Tu-Su 12:00-15:00,16:00-22:30"
  },
  {
    "osm_id": 664061733,
    "osm_type": "node",
    "name": "Kasumi",
    "amenity": "fast_food",
    "lat": 52.295765,
    "lng": 4.8613553,
    "address": "Lindenlaan 378",
    "city": "Amstelveen",
    "website": "https://www.khanbaba-amstelveen.nl/",
    "phone": null,
    "cuisine": "asian",
    "outdoor_seating": null,
    "wheelchair": null,
    "opening_hours": null
  },
  {
    "osm_id": 823790971,
    "osm_type": "node",
    "name": "Snackbar Mr. Ed",
    "amenity": "fast_food",
    "lat": 52.2956181,
    "lng": 4.8612717,
    "address": "Lindenlaan 374",
    "city": "Amstelveen",
    "website": null,
    "phone": "+31 20 345 1714",
    "cuisine": "burger",
    "outdoor_seating": null,
    "wheelchair": null,
    "opening_hours": null
  },
  {
    "osm_id": 1100008576,
    "osm_type": "node",
    "name": "Du Monde Bar&Kitchen",
    "amenity": "restaurant",
    "lat": 52.300852,
    "lng": 4.846216,
    "address": "Dorpsstraat 104",
    "city": "Amstelveen",
    "website": "https://www.grandcafeoudedorp.nl",
    "phone": "+31 20 345 3366",
    "cuisine": "french",
    "outdoor_seating": null,
    "wheelchair": null,
    "opening_hours": null
  },
  {
    "osm_id": 1308856137,
    "osm_type": "node",
    "name": "Royal San Kong",
    "amenity": "restaurant",
    "lat": 52.3018289,
    "lng": 4.8462001,
    "address": "Dorpsstraat 57",
    "city": "Amstelveen",
    "website": "https://www.royalsankong.nl",
    "phone": "+31 20 647 7902",
    "cuisine": "chinese",
    "outdoor_seating": null,
    "wheelchair": null,
    "opening_hours": null
  },
  {
    "osm_id": 1322648241,
    "osm_type": "node",
    "name": "Patagonias",
    "amenity": "ice_cream",
    "lat": 52.295991,
    "lng": 4.8627447,
    "address": "Johannes Calvijnlaan 12",
    "city": "Amstelveen",
    "website": null,
    "phone": null,
    "cuisine": null,
    "outdoor_seating": null,
    "wheelchair": "yes",
    "opening_hours": null
  },
  {
    "osm_id": 1377780868,
    "osm_type": "node",
    "name": "Swirl's",
    "amenity": "fast_food",
    "lat": 52.3030823,
    "lng": 4.8611658,
    "address": null,
    "city": null,
    "website": null,
    "phone": null,
    "cuisine": "ice_cream",
    "outdoor_seating": null,
    "wheelchair": null,
    "opening_hours": null
  },
  {
    "osm_id": 1377787162,
    "osm_type": "node",
    "name": "FEBO",
    "amenity": "fast_food",
    "lat": 52.3037795,
    "lng": 4.8612165,
    "address": "Rembrandtweg 24",
    "city": "Amstelveen",
    "website": "https://www.febo.nl",
    "phone": "+31 20 640 1733",
    "cuisine": "friture",
    "outdoor_seating": null,
    "wheelchair": "yes",
    "opening_hours": "PH,Mo-Su 11:00-20:00; Th 20:00-22:00"
  },
  {
    "osm_id": 1692442670,
    "osm_type": "node",
    "name": "Grand Hotel Amstelveen/Bistro Nice",
    "amenity": "restaurant",
    "lat": 52.2775377,
    "lng": 4.8369019,
    "address": "Bovenkerkerweg 81",
    "city": "Amstelveen",
    "website": "https://www.bistronice.nl/",
    "phone": "+31 20 645 5559",
    "cuisine": "french",
    "outdoor_seating": null,
    "wheelchair": "yes",
    "opening_hours": "Mo-Su 17:00-22:00"
  },
  {
    "osm_id": 1702469812,
    "osm_type": "node",
    "name": "kiosk",
    "amenity": "cafe",
    "lat": 52.3201959,
    "lng": 4.827079,
    "address": null,
    "city": null,
    "website": null,
    "phone": null,
    "cuisine": null,
    "outdoor_seating": null,
    "wheelchair": null,
    "opening_hours": "Tu-Su 10:30-19:00"
  },
  {
    "osm_id": 1902129333,
    "osm_type": "node",
    "name": "Breaxx",
    "amenity": "fast_food",
    "lat": 52.302778,
    "lng": 4.858247,
    "address": null,
    "city": null,
    "website": null,
    "phone": null,
    "cuisine": null,
    "outdoor_seating": null,
    "wheelchair": null,
    "opening_hours": null
  },
  {
    "osm_id": 1905975211,
    "osm_type": "node",
    "name": "Patagonia IJs",
    "amenity": "cafe",
    "lat": 52.2959882,
    "lng": 4.8627694,
    "address": null,
    "city": null,
    "website": null,
    "phone": null,
    "cuisine": null,
    "outdoor_seating": null,
    "wheelchair": null,
    "opening_hours": null
  },
  {
    "osm_id": 1927290379,
    "osm_type": "node",
    "name": "Tanuki",
    "amenity": "restaurant",
    "lat": 52.3026631,
    "lng": 4.8624811,
    "address": "Pieter Lastmanweg 9",
    "city": "Amstelveen",
    "website": "https://www.restaurant-tanuki.nl",
    "phone": null,
    "cuisine": "japanese",
    "outdoor_seating": null,
    "wheelchair": null,
    "opening_hours": null
  },
  {
    "osm_id": 2280578452,
    "osm_type": "node",
    "name": "Saigon Càphê",
    "amenity": "restaurant",
    "lat": 52.303164,
    "lng": 4.859757,
    "address": "Stadsplein",
    "city": null,
    "website": "https://www.saigoncaphe.nl/",
    "phone": null,
    "cuisine": "vietnamese",
    "outdoor_seating": "yes",
    "wheelchair": "limited",
    "opening_hours": null
  },
  {
    "osm_id": 2280578699,
    "osm_type": "node",
    "name": "Zorgeloos",
    "amenity": "restaurant",
    "lat": 52.303103,
    "lng": 4.86,
    "address": "Stadsplein 14",
    "city": "Amstelveen",
    "website": "https://zorgeloosetenendrinken.nl/",
    "phone": null,
    "cuisine": null,
    "outdoor_seating": "yes",
    "wheelchair": "limited",
    "opening_hours": null
  },
  {
    "osm_id": 2299968721,
    "osm_type": "node",
    "name": "Popov",
    "amenity": "cafe",
    "lat": 52.302899,
    "lng": 4.860697,
    "address": null,
    "city": null,
    "website": null,
    "phone": null,
    "cuisine": null,
    "outdoor_seating": "yes",
    "wheelchair": "limited",
    "opening_hours": null
  },
  {
    "osm_id": 2778833049,
    "osm_type": "node",
    "name": "Le Pain Quotidien",
    "amenity": "cafe",
    "lat": 52.3033774,
    "lng": 4.860995,
    "address": "Nieuw Loopveld 2-4",
    "city": "Amstelveen",
    "website": "https://www.lepainquotidien.nl",
    "phone": "+31 20 354 2180",
    "cuisine": "coffee_shop",
    "outdoor_seating": "yes",
    "wheelchair": null,
    "opening_hours": "Mo-Su 09:00-15:30"
  },
  {
    "osm_id": 2781425518,
    "osm_type": "node",
    "name": "Boss Kitchen",
    "amenity": "restaurant",
    "lat": 52.3272943,
    "lng": 4.8556421,
    "address": "Bosbaanweg 7",
    "city": "Amstelveen",
    "website": null,
    "phone": null,
    "cuisine": null,
    "outdoor_seating": "yes",
    "wheelchair": null,
    "opening_hours": null
  },
  {
    "osm_id": 2781451669,
    "osm_type": "node",
    "name": "Mr. Sushi",
    "amenity": "fast_food",
    "lat": 52.317788,
    "lng": 4.8656121,
    "address": "Bourgondischelaan 3",
    "city": "Amstelveen",
    "website": "https://amstelveen.mrsushi.nl/",
    "phone": null,
    "cuisine": "sushi",
    "outdoor_seating": null,
    "wheelchair": null,
    "opening_hours": null
  },
  {
    "osm_id": 2781452305,
    "osm_type": "node",
    "name": "Santa Maria",
    "amenity": "restaurant",
    "lat": 52.3169007,
    "lng": 4.8573225,
    "address": "Amsterdamseweg 448",
    "city": "Amstelveen",
    "website": "https://www.santamaria-amstelveen.nl/",
    "phone": null,
    "cuisine": "italian",
    "outdoor_seating": null,
    "wheelchair": null,
    "opening_hours": null
  },
  {
    "osm_id": 2781452356,
    "osm_type": "node",
    "name": "Telepizza",
    "amenity": "fast_food",
    "lat": 52.3169892,
    "lng": 4.8573338,
    "address": "Amsterdamseweg 452",
    "city": "Amstelveen",
    "website": "https://www.tele-pizza-amstelveen.nl/",
    "phone": "+31 20 643 5287",
    "cuisine": "pizza",
    "outdoor_seating": null,
    "wheelchair": null,
    "opening_hours": "Mo-Su 12:00-22:00"
  },
  {
    "osm_id": 2781452703,
    "osm_type": "node",
    "name": "Atchaya",
    "amenity": "restaurant",
    "lat": 52.3200076,
    "lng": 4.8571313,
    "address": "Amsterdamseweg 503",
    "city": "Amstelveen",
    "website": "https://www.atchayarestaurantamstelveen.nl",
    "phone": null,
    "cuisine": "indian",
    "outdoor_seating": null,
    "wheelchair": null,
    "opening_hours": null
  },
  {
    "osm_id": 2783659913,
    "osm_type": "node",
    "name": "Feng",
    "amenity": "restaurant",
    "lat": 52.308248,
    "lng": 4.8472749,
    "address": "Amsterdamseweg 104A",
    "city": "Amstelveen",
    "website": "https://fengbistro.nl/",
    "phone": null,
    "cuisine": "asian",
    "outdoor_seating": null,
    "wheelchair": null,
    "opening_hours": null
  },
  {
    "osm_id": 2783660143,
    "osm_type": "node",
    "name": "Diwali Palace",
    "amenity": "restaurant",
    "lat": 52.3088324,
    "lng": 4.8470631,
    "address": "Amsterdamseweg 114",
    "city": "Amstelveen",
    "website": "https://www.diwalipalace.nl",
    "phone": null,
    "cuisine": "indian",
    "outdoor_seating": null,
    "wheelchair": null,
    "opening_hours": null
  },
  {
    "osm_id": 2783660773,
    "osm_type": "node",
    "name": "The Roastary",
    "amenity": "fast_food",
    "lat": 52.3104013,
    "lng": 4.8470596,
    "address": "Amsterdamseweg 152",
    "city": "Amstelveen",
    "website": "https://theroastary.com",
    "phone": null,
    "cuisine": "chicken",
    "outdoor_seating": null,
    "wheelchair": null,
    "opening_hours": null
  },
  {
    "osm_id": 2783660861,
    "osm_type": "node",
    "name": "Eetcafé De Vijver",
    "amenity": "cafe",
    "lat": 52.3101831,
    "lng": 4.8465496,
    "address": "Amsterdamseweg 159",
    "city": "Amstelveen",
    "website": "https://eetcafedevijfer.weebly.com/",
    "phone": null,
    "cuisine": null,
    "outdoor_seating": null,
    "wheelchair": null,
    "opening_hours": null
  },
  {
    "osm_id": 2783660985,
    "osm_type": "node",
    "name": "Broodje Amstelveen",
    "amenity": "fast_food",
    "lat": 52.3102421,
    "lng": 4.8465555,
    "address": "Amsterdamseweg 161",
    "city": "Amstelveen",
    "website": "http://broodjeamstelveen.nl",
    "phone": null,
    "cuisine": null,
    "outdoor_seating": null,
    "wheelchair": null,
    "opening_hours": null
  },
  {
    "osm_id": 2783661196,
    "osm_type": "node",
    "name": "Maalder",
    "amenity": "cafe",
    "lat": 52.3110938,
    "lng": 4.8470833,
    "address": "Amsterdamseweg 174",
    "city": "Amstelveen",
    "website": "https://maalder.nl/",
    "phone": null,
    "cuisine": null,
    "outdoor_seating": null,
    "wheelchair": null,
    "opening_hours": null
  },
  {
    "osm_id": 2783661287,
    "osm_type": "node",
    "name": "Shinsei Sushi",
    "amenity": "fast_food",
    "lat": 52.3119014,
    "lng": 4.8471331,
    "address": "Amsterdamseweg 194",
    "city": "Amstelveen",
    "website": "https://www.shinsei-sushi-amstelveen.nl/",
    "phone": "+31 20 754 2577",
    "cuisine": "sushi",
    "outdoor_seating": null,
    "wheelchair": null,
    "opening_hours": "12:00-20:30"
  },
  {
    "osm_id": 2783661356,
    "osm_type": "node",
    "name": "Palinuro",
    "amenity": "fast_food",
    "lat": 52.3120559,
    "lng": 4.8471317,
    "address": "Amsterdamseweg 200",
    "city": "Amstelveen",
    "website": "https://www.palinuro-amstelveen.nl/",
    "phone": null,
    "cuisine": "pizza;italian",
    "outdoor_seating": null,
    "wheelchair": null,
    "opening_hours": null
  },
  {
    "osm_id": 2799309723,
    "osm_type": "node",
    "name": "IJsje aan de Amstel",
    "amenity": "fast_food",
    "lat": 52.2973353,
    "lng": 4.8998863,
    "address": "Amstelzijde 47",
    "city": "Amstelveen",
    "website": "https://www.ijsjeaandeamstel.nl",
    "phone": "+31 20 496 4038",
    "cuisine": "ice_cream",
    "outdoor_seating": null,
    "wheelchair": null,
    "opening_hours": "Mo-Fr 14:30-21:00, Sa-Su 13:00-21:00"
  },
  {
    "osm_id": 2799309743,
    "osm_type": "node",
    "name": "Ron Gastrobar Indonesia",
    "amenity": "restaurant",
    "lat": 52.2974206,
    "lng": 4.8997657,
    "address": "Amstelzijde 51",
    "city": "Amstelveen",
    "website": "https://rongastrobar.nl/restaurants/ron-gastrobar-indonesia",
    "phone": "+31 20 305 2760",
    "cuisine": "indonesian",
    "outdoor_seating": null,
    "wheelchair": null,
    "opening_hours": "Mo-Su 12:00-22:30"
  },
  {
    "osm_id": 2799309749,
    "osm_type": "node",
    "name": "India Port",
    "amenity": "restaurant",
    "lat": 52.2975098,
    "lng": 4.8996408,
    "address": "Amstelzijde 53",
    "city": "Amstelveen",
    "website": "https://www.indiaport.nl/",
    "phone": null,
    "cuisine": "indian",
    "outdoor_seating": null,
    "wheelchair": null,
    "opening_hours": null
  },
  {
    "osm_id": 2799309753,
    "osm_type": "node",
    "name": "Brasserie Paardenburg",
    "amenity": "restaurant",
    "lat": 52.2975945,
    "lng": 4.8994833,
    "address": "Amstelzijde 55",
    "city": "Amstelveen",
    "website": "https://brasseriepaardenburg.nl/",
    "phone": "+31 20 496 1210",
    "cuisine": null,
    "outdoor_seating": null,
    "wheelchair": null,
    "opening_hours": null
  },
  {
    "osm_id": 2799350572,
    "osm_type": "node",
    "name": "Brasserie 10",
    "amenity": "restaurant",
    "lat": 52.2807056,
    "lng": 4.876173,
    "address": "De Afslag 1",
    "city": "Amstelveen",
    "website": "https://www.brasserie10.nl",
    "phone": "+31 85 401 7928",
    "cuisine": "brasserie",
    "outdoor_seating": null,
    "wheelchair": null,
    "opening_hours": "Mo-Su 10:00-22:00"
  },
  {
    "osm_id": 2799352269,
    "osm_type": "node",
    "name": "Fêtevis",
    "amenity": "restaurant",
    "lat": 52.2938788,
    "lng": 4.8898389,
    "address": "De Oude Molen 5",
    "city": "Amstelveen",
    "website": "https://www.fetevis.nl/",
    "phone": "+31 20 472 2462",
    "cuisine": "international;french",
    "outdoor_seating": "yes",
    "wheelchair": null,
    "opening_hours": "sa-th 17.00-21.00, fr 12.00-21.00"
  },
  {
    "osm_id": 2799383408,
    "osm_type": "node",
    "name": "Zomer Bloemenpluktuin",
    "amenity": "cafe",
    "lat": 52.2525906,
    "lng": 4.8685752,
    "address": "Amsteldijk Zuid 183B",
    "city": "Amstelveen",
    "website": "https://www.zomerbloemenpluktuin.nl/",
    "phone": null,
    "cuisine": "koffie",
    "outdoor_seating": null,
    "wheelchair": null,
    "opening_hours": "We-Su 11:00-17:00"
  },
  {
    "osm_id": 2806907924,
    "osm_type": "node",
    "name": "La Gare",
    "amenity": "cafe",
    "lat": 52.3016901,
    "lng": 4.8463748,
    "address": "Stationsstraat 1",
    "city": "Amstelveen",
    "website": "https://lagareamstelveen.nl",
    "phone": null,
    "cuisine": "coffee_shop",
    "outdoor_seating": null,
    "wheelchair": null,
    "opening_hours": null
  },
  {
    "osm_id": 2806912189,
    "osm_type": "node",
    "name": "LemonGrass",
    "amenity": "restaurant",
    "lat": 52.3016786,
    "lng": 4.8464429,
    "address": "Stationsstraat 3",
    "city": "Amstelveen",
    "website": "https://www.restaurantlemongrass.nl/",
    "phone": null,
    "cuisine": "indonesian",
    "outdoor_seating": null,
    "wheelchair": null,
    "opening_hours": null
  },
  {
    "osm_id": 2806914523,
    "osm_type": "node",
    "name": "Shouryuu Izakaya",
    "amenity": "restaurant",
    "lat": 52.3074968,
    "lng": 4.8562351,
    "address": "Keizer Karelweg 337",
    "city": "Amstelveen",
    "website": "https://www.shouryuu.nl/",
    "phone": null,
    "cuisine": "japanese",
    "outdoor_seating": "yes",
    "wheelchair": null,
    "opening_hours": null
  },
  {
    "osm_id": 2806918472,
    "osm_type": "node",
    "name": "Gia Gelato",
    "amenity": "ice_cream",
    "lat": 52.3020126,
    "lng": 4.8464696,
    "address": "Dorpsstraat 68",
    "city": "Amstelveen",
    "website": null,
    "phone": null,
    "cuisine": null,
    "outdoor_seating": null,
    "wheelchair": null,
    "opening_hours": null
  },
  {
    "osm_id": 2806918814,
    "osm_type": "node",
    "name": "De Poelier",
    "amenity": "restaurant",
    "lat": 52.3016207,
    "lng": 4.8466854,
    "address": "Stationsstraat 7",
    "city": "Amstelveen",
    "website": "https://www.restaurant-depoelier.nl/",
    "phone": null,
    "cuisine": null,
    "outdoor_seating": null,
    "wheelchair": null,
    "opening_hours": null
  },
  {
    "osm_id": 2806918833,
    "osm_type": "node",
    "name": "Snackbar BOR",
    "amenity": "fast_food",
    "lat": 52.3019446,
    "lng": 4.8464475,
    "address": "Dorpsstraat 72",
    "city": "Amstelveen",
    "website": "https://www.thuisbezorgd.nl/snackbar-bor",
    "phone": null,
    "cuisine": "snackbar",
    "outdoor_seating": null,
    "wheelchair": null,
    "opening_hours": null
  },
  {
    "osm_id": 2806918843,
    "osm_type": "node",
    "name": "Het Wapen van Amstelveen",
    "amenity": "cafe",
    "lat": 52.3018726,
    "lng": 4.846413,
    "address": "Dorpsstraat 74",
    "city": "Amstelveen",
    "website": "https://www.hetwapenvanamstelveen.nl/",
    "phone": null,
    "cuisine": null,
    "outdoor_seating": null,
    "wheelchair": null,
    "opening_hours": null
  },
  {
    "osm_id": 2806919228,
    "osm_type": "node",
    "name": "Gusto World of Pizza",
    "amenity": "restaurant",
    "lat": 52.3014671,
    "lng": 4.8463429,
    "address": "Dorpsstraat 84",
    "city": "Amstelveen",
    "website": "https://www.facebook.com/gustoworldofpizza",
    "phone": null,
    "cuisine": "pizza",
    "outdoor_seating": null,
    "wheelchair": null,
    "opening_hours": null
  },
  {
    "osm_id": 2806919508,
    "osm_type": "node",
    "name": "Damso",
    "amenity": "restaurant",
    "lat": 52.3013656,
    "lng": 4.8463217,
    "address": "Dorpsstraat 88",
    "city": "Amstelveen",
    "website": "https://damsokorean.foodticket.nl/",
    "phone": null,
    "cuisine": "korean",
    "outdoor_seating": null,
    "wheelchair": null,
    "opening_hours": null
  },
  {
    "osm_id": 2807118520,
    "osm_type": "node",
    "name": "Burger Business",
    "amenity": "fast_food",
    "lat": 52.310155,
    "lng": 4.8704001,
    "address": "De Beerebijt 16A",
    "city": "Amstelveen",
    "website": "https://www.burgerbusiness.nl/amstelveen",
    "phone": null,
    "cuisine": "burger",
    "outdoor_seating": null,
    "wheelchair": null,
    "opening_hours": null
  },
  {
    "osm_id": 2807125498,
    "osm_type": "node",
    "name": "TakeYa",
    "amenity": "fast_food",
    "lat": 52.3096808,
    "lng": 4.8635733,
    "address": "Rembrandtweg 340",
    "city": "Amstelveen",
    "website": "https://takeya.nl/",
    "phone": null,
    "cuisine": "japanese",
    "outdoor_seating": null,
    "wheelchair": null,
    "opening_hours": null
  },
  {
    "osm_id": 2807131120,
    "osm_type": "node",
    "name": "R Haan Thai Thai",
    "amenity": "restaurant",
    "lat": 52.3149183,
    "lng": 4.8637355,
    "address": "Rembrandtweg 687",
    "city": "Amstelveen",
    "website": "https://www.r-haan-thaithai.nl/",
    "phone": null,
    "cuisine": "thai",
    "outdoor_seating": null,
    "wheelchair": null,
    "opening_hours": null
  },
  {
    "osm_id": 2807131122,
    "osm_type": "node",
    "name": "Pakwaan",
    "amenity": "restaurant",
    "lat": 52.3147043,
    "lng": 4.8632973,
    "address": "Rembrandtweg 689",
    "city": "Amstelveen",
    "website": "https://pakwaan.nl/",
    "phone": null,
    "cuisine": "indian",
    "outdoor_seating": null,
    "wheelchair": null,
    "opening_hours": null
  },
  {
    "osm_id": 2807131684,
    "osm_type": "node",
    "name": "7 Spices",
    "amenity": "fast_food",
    "lat": 52.3100756,
    "lng": 4.870033,
    "address": "De Beerebijt 8",
    "city": "Amstelveen",
    "website": null,
    "phone": null,
    "cuisine": "indian",
    "outdoor_seating": null,
    "wheelchair": null,
    "opening_hours": null
  },
  {
    "osm_id": 2807233561,
    "osm_type": "node",
    "name": "Subzero's",
    "amenity": "cafe",
    "lat": 52.312729,
    "lng": 4.875727,
    "address": "Kostverlorenhof 101",
    "city": "Amstelveen",
    "website": null,
    "phone": null,
    "cuisine": null,
    "outdoor_seating": null,
    "wheelchair": null,
    "opening_hours": null
  },
  {
    "osm_id": 2807238171,
    "osm_type": "node",
    "name": "Vers van Gijs",
    "amenity": "fast_food",
    "lat": 52.3127501,
    "lng": 4.8755084,
    "address": "Kostverlorenhof 16",
    "city": "Amstelveen",
    "website": "https://www.versvangijs.nl/",
    "phone": null,
    "cuisine": null,
    "outdoor_seating": null,
    "wheelchair": null,
    "opening_hours": null
  },
  {
    "osm_id": 2807239013,
    "osm_type": "node",
    "name": "Pachamama",
    "amenity": "fast_food",
    "lat": 52.3128009,
    "lng": 4.8754844,
    "address": "Kostverlorenhof 17",
    "city": "Amstelveen",
    "website": "https://www.pachamamaonwheels.nl/",
    "phone": null,
    "cuisine": null,
    "outdoor_seating": null,
    "wheelchair": null,
    "opening_hours": null
  },
  {
    "osm_id": 2807240015,
    "osm_type": "node",
    "name": "Budhram's Rotishop",
    "amenity": "fast_food",
    "lat": 52.3129026,
    "lng": 4.8754363,
    "address": "Kostverlorenhof 19",
    "city": "Amstelveen",
    "website": null,
    "phone": null,
    "cuisine": null,
    "outdoor_seating": null,
    "wheelchair": null,
    "opening_hours": null
  },
  {
    "osm_id": 2807240311,
    "osm_type": "node",
    "name": "Domino's Pizza",
    "amenity": "fast_food",
    "lat": 52.3123212,
    "lng": 4.8747145,
    "address": "Eleanor Rooseveltlaan 2",
    "city": "Amstelveen",
    "website": "https://www.dominos.nl/winkel/nl-amstelveenerooseveltlaan-31005",
    "phone": null,
    "cuisine": "pizza",
    "outdoor_seating": null,
    "wheelchair": null,
    "opening_hours": null
  },
  {
    "osm_id": 2807253836,
    "osm_type": "node",
    "name": "Hapsalon Kapsalon",
    "amenity": "fast_food",
    "lat": 52.3133664,
    "lng": 4.875402,
    "address": "Kostverlorenhof 59A",
    "city": "Amstelveen",
    "website": "https://www.hapsalonkapsalon-amstelveen.nl/",
    "phone": null,
    "cuisine": "turkish",
    "outdoor_seating": null,
    "wheelchair": null,
    "opening_hours": null
  },
  {
    "osm_id": 2807254041,
    "osm_type": "node",
    "name": "Kasturi",
    "amenity": "restaurant",
    "lat": 52.3132745,
    "lng": 4.8756343,
    "address": "Kostverlorenhof 62",
    "city": "Amstelveen",
    "website": "https://kasturi.nl/",
    "phone": null,
    "cuisine": "indian",
    "outdoor_seating": null,
    "wheelchair": "limited",
    "opening_hours": null
  },
  {
    "osm_id": 2807254064,
    "osm_type": "node",
    "name": "Sukarasa",
    "amenity": "fast_food",
    "lat": 52.31323,
    "lng": 4.8756529,
    "address": "Kostverlorenhof 63",
    "city": "Amstelveen",
    "website": null,
    "phone": null,
    "cuisine": "indonesian",
    "outdoor_seating": null,
    "wheelchair": null,
    "opening_hours": null
  },
  {
    "osm_id": 2807254405,
    "osm_type": "node",
    "name": "Thai From Sky",
    "amenity": "fast_food",
    "lat": 52.3131186,
    "lng": 4.8757125,
    "address": "Kostverlorenhof 65",
    "city": "Amstelveen",
    "website": "http://www.thaifromsky.nl",
    "phone": null,
    "cuisine": "thai",
    "outdoor_seating": null,
    "wheelchair": null,
    "opening_hours": null
  },
  {
    "osm_id": 2807254425,
    "osm_type": "node",
    "name": "I Se Ya",
    "amenity": "fast_food",
    "lat": 52.3130688,
    "lng": 4.8757515,
    "address": "Kostverlorenhof 66",
    "city": "Amstelveen",
    "website": "http://www.iseya.nl",
    "phone": null,
    "cuisine": "sushi",
    "outdoor_seating": null,
    "wheelchair": null,
    "opening_hours": null
  },
  {
    "osm_id": 2807254443,
    "osm_type": "node",
    "name": "Nagomi",
    "amenity": "restaurant",
    "lat": 52.3130132,
    "lng": 4.8757622,
    "address": "Kostverlorenhof 67",
    "city": "Amstelveen",
    "website": "https://nagomirestaurant.jouwweb.nl/",
    "phone": null,
    "cuisine": "japanese",
    "outdoor_seating": null,
    "wheelchair": null,
    "opening_hours": null
  },
  {
    "osm_id": 2807374626,
    "osm_type": "node",
    "name": "Tokyo Ramen Takeichi",
    "amenity": "restaurant",
    "lat": 52.3028626,
    "lng": 4.8608594,
    "address": "Stadsplein 18",
    "city": "Amstelveen",
    "website": "https://takeichi-ramen.eu/locations/the-netherlands/stadsplein-18-amstelveen",
    "phone": "+31 20 4415244",
    "cuisine": "ramen",
    "outdoor_seating": "yes",
    "wheelchair": "limited",
    "opening_hours": "Mo-Su 12:00-21:00"
  },
  {
    "osm_id": 2807374999,
    "osm_type": "node",
    "name": "Kokusai",
    "amenity": "restaurant",
    "lat": 52.3018157,
    "lng": 4.866451,
    "address": "Stadstuinen 2",
    "city": "Amstelveen",
    "website": "https://restaurantkokusai.nl/",
    "phone": null,
    "cuisine": "japanese",
    "outdoor_seating": "yes",
    "wheelchair": null,
    "opening_hours": null
  },
  {
    "osm_id": 2807376423,
    "osm_type": "node",
    "name": "Eazie",
    "amenity": "fast_food",
    "lat": 52.3036473,
    "lng": 4.8611464,
    "address": "Rembrandtweg 20",
    "city": "Amstelveen",
    "website": "https://eazie.nl/en/locations/amstelveen/",
    "phone": null,
    "cuisine": "asian",
    "outdoor_seating": null,
    "wheelchair": null,
    "opening_hours": null
  },
  {
    "osm_id": 2807393195,
    "osm_type": "node",
    "name": "IJscuypje",
    "amenity": "ice_cream",
    "lat": 52.3033915,
    "lng": 4.8617576,
    "address": "Nieuw Loopveld 5",
    "city": "Amstelveen",
    "website": "https://www.ijscuypje.nl/",
    "phone": "+31 20 617 0039",
    "cuisine": null,
    "outdoor_seating": null,
    "wheelchair": null,
    "opening_hours": "Mo-We 12:00-19:30; Th-Su 12:00-21:00"
  },
  {
    "osm_id": 2807394081,
    "osm_type": "node",
    "name": "Day Foodbar Amstelveen",
    "amenity": "restaurant",
    "lat": 52.3027031,
    "lng": 4.8610138,
    "address": "Stadsplein 52",
    "city": "Amstelveen",
    "website": "https://dayfoodbar.nl/",
    "phone": null,
    "cuisine": "italian",
    "outdoor_seating": null,
    "wheelchair": "yes",
    "opening_hours": "Mo-Th,Su 12:00 - 22:00; Fr-Sa 12:00 - 23:00"
  },
  {
    "osm_id": 2807394836,
    "osm_type": "node",
    "name": "Dixie",
    "amenity": "restaurant",
    "lat": 52.3026081,
    "lng": 4.8609475,
    "address": "Stadsplein 54",
    "city": "Amstelveen",
    "website": "https://www.dixie-amstelveen.nl",
    "phone": "+31 20 640 3004",
    "cuisine": null,
    "outdoor_seating": "yes",
    "wheelchair": "yes",
    "opening_hours": "Mo-Tu 15:00-01:00; Fr 12:00-02:00; Sa 12:00-02:00; Su 15:00-01:00"
  },
  {
    "osm_id": 2807396334,
    "osm_type": "node",
    "name": "Coffee Company",
    "amenity": "cafe",
    "lat": 52.3033245,
    "lng": 4.8611551,
    "address": "Nieuw Loopveld 6",
    "city": "Amstelveen",
    "website": "https://coffeecompany.nl/locations/nieuw-loopveld-6/",
    "phone": null,
    "cuisine": "coffee_shop",
    "outdoor_seating": "no",
    "wheelchair": null,
    "opening_hours": "Mo-Su 10:00-18:00, Mo-Sa 09:00-10:00, Th 18:00-21:00"
  },
  {
    "osm_id": 2807398993,
    "osm_type": "node",
    "name": "mana",
    "amenity": "cafe",
    "lat": 52.3043062,
    "lng": 4.8609837,
    "address": "Rembrandtweg 73",
    "city": "Amstelveen",
    "website": "https://manacafe.nl/",
    "phone": null,
    "cuisine": null,
    "outdoor_seating": null,
    "wheelchair": null,
    "opening_hours": null
  },
  {
    "osm_id": 2807399649,
    "osm_type": "node",
    "name": "Yogen Früz",
    "amenity": "ice_cream",
    "lat": 52.3021124,
    "lng": 4.8625062,
    "address": "Binnenhof 77D",
    "city": "Amstelveen",
    "website": "https://www.yogenfruz.com/",
    "phone": null,
    "cuisine": "frozen_yogurt",
    "outdoor_seating": null,
    "wheelchair": "yes",
    "opening_hours": null
  },
  {
    "osm_id": 2807399652,
    "osm_type": "node",
    "name": "Tahoor Fastfood",
    "amenity": "fast_food",
    "lat": 52.3018232,
    "lng": 4.8632392,
    "address": "Buitenplein 78",
    "city": "Amstelveen",
    "website": null,
    "phone": null,
    "cuisine": "indian",
    "outdoor_seating": "yes",
    "wheelchair": "yes",
    "opening_hours": null
  },
  {
    "osm_id": 2807399674,
    "osm_type": "node",
    "name": "Stadscafé De Pannenkoek",
    "amenity": "cafe",
    "lat": 52.3020099,
    "lng": 4.8633823,
    "address": "Buitenplein 79",
    "city": "Amstelveen",
    "website": "https://stadscafedepannenkoek.nl/",
    "phone": null,
    "cuisine": null,
    "outdoor_seating": "yes",
    "wheelchair": "yes",
    "opening_hours": "Su-Mo 11:30-21:00; Tu-Sa 10:00-21:00"
  },
  {
    "osm_id": 2807399698,
    "osm_type": "node",
    "name": "Starbucks",
    "amenity": "cafe",
    "lat": 52.3028804,
    "lng": 4.8617754,
    "address": "Binnenhof 7C",
    "city": "Amstelveen",
    "website": "https://www.starbucks.com/store-locator/store/1005560/amsterdam-amstelveen-mall-binnenhof-7-c-amstelveen-nh-1181-ge-nl",
    "phone": null,
    "cuisine": "coffee_shop",
    "outdoor_seating": "yes",
    "wheelchair": "yes",
    "opening_hours": "Mo-Sa 08:00-18:00; Su 10:00-18:00"
  },
  {
    "osm_id": 2807399766,
    "osm_type": "node",
    "name": "Anatolisch Eetcafé",
    "amenity": "fast_food",
    "lat": 52.3018231,
    "lng": 4.8633173,
    "address": "Buitenplein 77",
    "city": "Amstelveen",
    "website": null,
    "phone": null,
    "cuisine": null,
    "outdoor_seating": "yes",
    "wheelchair": "yes",
    "opening_hours": null
  },
  {
    "osm_id": 2807399787,
    "osm_type": "node",
    "name": "Frites Affair",
    "amenity": "fast_food",
    "lat": 52.3024137,
    "lng": 4.8607471,
    "address": "Stadsplein 89A",
    "city": "Amstelveen",
    "website": "https://www.fritesaffairs.com/amstelveen/",
    "phone": null,
    "cuisine": "burger",
    "outdoor_seating": "yes",
    "wheelchair": "yes",
    "opening_hours": null
  },
  {
    "osm_id": 2807400922,
    "osm_type": "node",
    "name": "Subway",
    "amenity": "fast_food",
    "lat": 52.3019706,
    "lng": 4.8635424,
    "address": "Buitenplein 81",
    "city": "Amstelveen",
    "website": null,
    "phone": null,
    "cuisine": "sandwich",
    "outdoor_seating": null,
    "wheelchair": null,
    "opening_hours": null
  },
  {
    "osm_id": 2807400942,
    "osm_type": "node",
    "name": "McDonald's",
    "amenity": "fast_food",
    "lat": 52.3019509,
    "lng": 4.8636224,
    "address": "Buitenplein 82",
    "city": "Amstelveen",
    "website": "https://mcdonaldsrestaurant.nl/winkelcentrum-amstelveen-buitenplein",
    "phone": "+31 20 441 7539",
    "cuisine": "burger",
    "outdoor_seating": "yes",
    "wheelchair": "limited",
    "opening_hours": "09:00-23:00; Fr-Sa 09:00-24:00"
  },
  {
    "osm_id": 2807403730,
    "osm_type": "node",
    "name": "Fluffy",
    "amenity": "cafe",
    "lat": 52.3023098,
    "lng": 4.860449,
    "address": "Stadsplein 95",
    "city": "Amstelveen",
    "website": "https://fluffycafe.nl/",
    "phone": null,
    "cuisine": null,
    "outdoor_seating": null,
    "wheelchair": null,
    "opening_hours": null
  },
  {
    "osm_id": 2808257495,
    "osm_type": "node",
    "name": "Aan de Poel",
    "amenity": "restaurant",
    "lat": 52.2999361,
    "lng": 4.8448127,
    "address": "Handweg 1",
    "city": "Amstelveen",
    "website": "https://www.aandepoel.nl",
    "phone": "+31 20 345 1763",
    "cuisine": "french",
    "outdoor_seating": null,
    "wheelchair": "yes",
    "opening_hours": null
  },
  {
    "osm_id": 2808262428,
    "osm_type": "node",
    "name": "Buenos Aires",
    "amenity": "restaurant",
    "lat": 52.3028319,
    "lng": 4.8464282,
    "address": "Dorpsstraat 23",
    "city": "Amstelveen",
    "website": "https://baires.nl",
    "phone": null,
    "cuisine": "argentinian",
    "outdoor_seating": null,
    "wheelchair": null,
    "opening_hours": null
  },
  {
    "osm_id": 2808262478,
    "osm_type": "node",
    "name": "Villa Borghese",
    "amenity": "restaurant",
    "lat": 52.3023396,
    "lng": 4.8443865,
    "address": "Laan Nieuwer-Amstel 25",
    "city": "Amstelveen",
    "website": "https://www.villa-borghese.nl/",
    "phone": null,
    "cuisine": "italian",
    "outdoor_seating": null,
    "wheelchair": null,
    "opening_hours": null
  },
  {
    "osm_id": 2808263872,
    "osm_type": "node",
    "name": "Carel's Cafetaria",
    "amenity": "fast_food",
    "lat": 52.2912587,
    "lng": 4.8420209,
    "address": "Maalderij 4",
    "city": "Amstelveen",
    "website": null,
    "phone": null,
    "cuisine": "burger",
    "outdoor_seating": null,
    "wheelchair": "yes",
    "opening_hours": null
  },
  {
    "osm_id": 2808263942,
    "osm_type": "node",
    "name": "Colijn",
    "amenity": "restaurant",
    "lat": 52.2926098,
    "lng": 4.8391542,
    "address": "Noorddammerlaan 42",
    "city": "Amstelveen",
    "website": "https://www.restaurantcolijn.nl/",
    "phone": null,
    "cuisine": "international;grill;french",
    "outdoor_seating": null,
    "wheelchair": "yes",
    "opening_hours": "Mo-Su 11:00-10:00"
  },
  {
    "osm_id": 2808314366,
    "osm_type": "node",
    "name": "Da Vinci",
    "amenity": "ice_cream",
    "lat": 52.2930581,
    "lng": 4.8534916,
    "address": "Lindenlaan 145",
    "city": "Amstelveen",
    "website": null,
    "phone": null,
    "cuisine": null,
    "outdoor_seating": null,
    "wheelchair": null,
    "opening_hours": "Mo-Su 12:00-22:00"
  },
  {
    "osm_id": 2808314382,
    "osm_type": "node",
    "name": "Veri Sapori",
    "amenity": "restaurant",
    "lat": 52.2929893,
    "lng": 4.8534892,
    "address": "Lindenlaan 147",
    "city": "Amstelveen",
    "website": "https://www.verisapori.nl/",
    "phone": null,
    "cuisine": "italian",
    "outdoor_seating": null,
    "wheelchair": null,
    "opening_hours": null
  },
  {
    "osm_id": 2808315773,
    "osm_type": "node",
    "name": "Cyrus de Grote",
    "amenity": "restaurant",
    "lat": 52.2968288,
    "lng": 4.8541222,
    "address": "Hueseplein 1",
    "city": "Amstelveen",
    "website": "https://cyrusdegrote.nl/",
    "phone": "+31 20 854 0747",
    "cuisine": "persian",
    "outdoor_seating": null,
    "wheelchair": "yes",
    "opening_hours": "Mo-Su 17:00-23:00"
  },
  {
    "osm_id": 2808318291,
    "osm_type": "node",
    "name": "Sarah's Snackbar",
    "amenity": "fast_food",
    "lat": 52.2966517,
    "lng": 4.8549678,
    "address": "Van der Hooplaan 44",
    "city": "Amstelveen",
    "website": "https://www.sarahssnackbar.nl/",
    "phone": null,
    "cuisine": null,
    "outdoor_seating": null,
    "wheelchair": "limited",
    "opening_hours": null
  },
  {
    "osm_id": 2808321726,
    "osm_type": "node",
    "name": "Lunchroom ITaly",
    "amenity": "fast_food",
    "lat": 52.2919741,
    "lng": 4.8542674,
    "address": "Van der Hooplaan 231A",
    "city": "Amstelveen",
    "website": "https://www.lunchroomitaly.nl/",
    "phone": null,
    "cuisine": "sandwich",
    "outdoor_seating": null,
    "wheelchair": null,
    "opening_hours": null
  },
  {
    "osm_id": 2808325795,
    "osm_type": "node",
    "name": "Domino's",
    "amenity": "fast_food",
    "lat": 52.2967479,
    "lng": 4.8542733,
    "address": "Hueseplein 4",
    "city": "Amstelveen",
    "website": "https://www.dominos.nl/winkel/nl-amstelveenhueseplein-30592",
    "phone": "+31 20 345 7666",
    "cuisine": "pizza",
    "outdoor_seating": null,
    "wheelchair": null,
    "opening_hours": "Sa-Mo 15:00-22:00; Tu-Fr 10:00-22:00"
  },
  {
    "osm_id": 2808330927,
    "osm_type": "node",
    "name": "Selera Anda",
    "amenity": "restaurant",
    "lat": 52.2944915,
    "lng": 4.8492248,
    "address": "Lindenlaan 57",
    "city": "Amstelveen",
    "website": "https://seleraanda.nl/",
    "phone": null,
    "cuisine": "indonesian",
    "outdoor_seating": null,
    "wheelchair": null,
    "opening_hours": null
  },
  {
    "osm_id": 2809135996,
    "osm_type": "node",
    "name": "Golden Bird",
    "amenity": "restaurant",
    "lat": 52.2794144,
    "lng": 4.8628643,
    "address": "Parlevinker 1",
    "city": "Amstelveen",
    "website": "https://www.restaurant-goldenbird.nl",
    "phone": "+31 20 643 4844",
    "cuisine": "chinese;japanese",
    "outdoor_seating": null,
    "wheelchair": null,
    "opening_hours": null
  },
  {
    "osm_id": 2809144061,
    "osm_type": "node",
    "name": "Kippie",
    "amenity": "fast_food",
    "lat": 52.289233,
    "lng": 4.869738,
    "address": "Groenhof 134",
    "city": "Amstelveen",
    "website": "https://www.kippie.nl/winkels/amstelveen",
    "phone": "+31 20 2807095",
    "cuisine": "chicken",
    "outdoor_seating": null,
    "wheelchair": null,
    "opening_hours": null
  },
  {
    "osm_id": 2809145518,
    "osm_type": "node",
    "name": "De Kim",
    "amenity": "fast_food",
    "lat": 52.2886443,
    "lng": 4.8706056,
    "address": "Groenhof 142B",
    "city": "Amstelveen",
    "website": "https://facebook.com/snackbardekimamstelveen",
    "phone": null,
    "cuisine": null,
    "outdoor_seating": null,
    "wheelchair": null,
    "opening_hours": null
  },
  {
    "osm_id": 2809163982,
    "osm_type": "node",
    "name": "Plaza Waardhuizen",
    "amenity": "fast_food",
    "lat": 52.2795128,
    "lng": 4.8617864,
    "address": "Parlevinker 39",
    "city": "Amstelveen",
    "website": "https://www.plazafoodforall.nl/vestigingen/plaza-waardhuizen/",
    "phone": "+31 20 643 9025",
    "cuisine": "burger",
    "outdoor_seating": null,
    "wheelchair": null,
    "opening_hours": null
  },
  {
    "osm_id": 2809314388,
    "osm_type": "node",
    "name": "Fussia",
    "amenity": "restaurant",
    "lat": 52.2816493,
    "lng": 4.8421508,
    "address": "Dr. Willem Dreesweg 1",
    "city": "Amstelveen",
    "website": "https://www.fussia.nl",
    "phone": "+31 20 822 7188",
    "cuisine": "asian",
    "outdoor_seating": null,
    "wheelchair": "yes",
    "opening_hours": null
  },
  {
    "osm_id": 2809318609,
    "osm_type": "node",
    "name": "Toko Mammie",
    "amenity": "restaurant",
    "lat": 52.2812261,
    "lng": 4.8516512,
    "address": "Brink 18",
    "city": "Amstelveen",
    "website": null,
    "phone": null,
    "cuisine": "indonesian",
    "outdoor_seating": null,
    "wheelchair": "yes",
    "opening_hours": "Mo 15:00-19:30; Tu-Fr 11:30-19:00; Sa 11:30-18:00; Su 13:00-17:00"
  },
  {
    "osm_id": 2809323309,
    "osm_type": "node",
    "name": "Zulle We",
    "amenity": "restaurant",
    "lat": 52.281429,
    "lng": 4.8513777,
    "address": "Brink 30",
    "city": "Amstelveen",
    "website": null,
    "phone": null,
    "cuisine": "burger",
    "outdoor_seating": null,
    "wheelchair": "yes",
    "opening_hours": null
  },
  {
    "osm_id": 2809422652,
    "osm_type": "node",
    "name": "Westpoint",
    "amenity": "fast_food",
    "lat": 52.2820747,
    "lng": 4.8260252,
    "address": "Westwijkplein 104",
    "city": "Amstelveen",
    "website": "http://www.winkelcentrum-westwijk.nl/portfolio-view/westpoint",
    "phone": null,
    "cuisine": null,
    "outdoor_seating": null,
    "wheelchair": null,
    "opening_hours": null
  },
  {
    "osm_id": 2809480389,
    "osm_type": "node",
    "name": "Tummy Treats",
    "amenity": "restaurant",
    "lat": 52.2820289,
    "lng": 4.8267797,
    "address": "Westwijkplein 88",
    "city": "Amstelveen",
    "website": "https://tummytreats.nl/",
    "phone": null,
    "cuisine": "indian",
    "outdoor_seating": null,
    "wheelchair": null,
    "opening_hours": null
  },
  {
    "osm_id": 3007202410,
    "osm_type": "node",
    "name": "Rooz",
    "amenity": "restaurant",
    "lat": 52.3176284,
    "lng": 4.8574307,
    "address": "Amsterdamseweg 470",
    "city": "Amstelveen",
    "website": "https://www.rooz.nl/",
    "phone": null,
    "cuisine": null,
    "outdoor_seating": null,
    "wheelchair": null,
    "opening_hours": null
  },
  {
    "osm_id": 3008597379,
    "osm_type": "node",
    "name": "De Frietfabriek",
    "amenity": "fast_food",
    "lat": 52.3213826,
    "lng": 4.8571569,
    "address": "Nieuwe Kalfjeslaan 1",
    "city": "Amstelveen",
    "website": "https://www.defrietfabriek.com/",
    "phone": null,
    "cuisine": null,
    "outdoor_seating": null,
    "wheelchair": null,
    "opening_hours": "Mo-Su 11:30-21:00"
  },
  {
    "osm_id": 3008607751,
    "osm_type": "node",
    "name": "Warung Baru",
    "amenity": "fast_food",
    "lat": 52.3198235,
    "lng": 4.8570818,
    "address": "Amsterdamseweg 499",
    "city": "Amstelveen",
    "website": null,
    "phone": null,
    "cuisine": null,
    "outdoor_seating": null,
    "wheelchair": null,
    "opening_hours": null
  },
  {
    "osm_id": 3021809609,
    "osm_type": "node",
    "name": "Van Leeuwen",
    "amenity": "fast_food",
    "lat": 52.3217084,
    "lng": 4.8581032,
    "address": null,
    "city": null,
    "website": null,
    "phone": null,
    "cuisine": null,
    "outdoor_seating": "yes",
    "wheelchair": null,
    "opening_hours": null
  },
  {
    "osm_id": 3098837684,
    "osm_type": "node",
    "name": "Dolce Verona",
    "amenity": "restaurant",
    "lat": 52.3131269,
    "lng": 4.875313,
    "address": "Kostverlorenhof 52",
    "city": "Amstelveen",
    "website": "https://www.dolce-verona.nl/",
    "phone": null,
    "cuisine": "italian",
    "outdoor_seating": null,
    "wheelchair": null,
    "opening_hours": null
  },
  {
    "osm_id": 3098840542,
    "osm_type": "node",
    "name": "Namu",
    "amenity": "restaurant",
    "lat": 52.3131154,
    "lng": 4.8751734,
    "address": "Kostverlorenhof 54",
    "city": "Amstelveen",
    "website": "https://www.facebook.com/pages/Namu/722902831095513",
    "phone": null,
    "cuisine": "korean;japanese",
    "outdoor_seating": null,
    "wheelchair": null,
    "opening_hours": null
  },
  {
    "osm_id": 3291915085,
    "osm_type": "node",
    "name": "Venstra Café",
    "amenity": "cafe",
    "lat": 52.3031859,
    "lng": 4.858972,
    "address": null,
    "city": null,
    "website": null,
    "phone": null,
    "cuisine": null,
    "outdoor_seating": null,
    "wheelchair": "yes",
    "opening_hours": null
  },
  {
    "osm_id": 3294963372,
    "osm_type": "node",
    "name": "Hiro Sushi",
    "amenity": "fast_food",
    "lat": 52.3095409,
    "lng": 4.863598,
    "address": "Rembrandtweg 324",
    "city": "Amstelveen",
    "website": "https://www.hirosushi.nl/",
    "phone": null,
    "cuisine": "japanese",
    "outdoor_seating": null,
    "wheelchair": null,
    "opening_hours": null
  },
  {
    "osm_id": 3790166822,
    "osm_type": "node",
    "name": "Willie Wong",
    "amenity": "restaurant",
    "lat": 52.3161104,
    "lng": 4.8572998,
    "address": "Amsterdamseweg 412",
    "city": "Amstelveen",
    "website": "https://williewong.nl/",
    "phone": null,
    "cuisine": "indonesian",
    "outdoor_seating": null,
    "wheelchair": null,
    "opening_hours": null
  },
  {
    "osm_id": 4151289572,
    "osm_type": "node",
    "name": "Winekitchen at Sea",
    "amenity": "restaurant",
    "lat": 52.3014502,
    "lng": 4.8486673,
    "address": "Ouderkerkerlaan 2",
    "city": "Amstelveen",
    "website": "https://www.thewinekitchenatsea.nl",
    "phone": null,
    "cuisine": "fish",
    "outdoor_seating": null,
    "wheelchair": null,
    "opening_hours": null
  },
  {
    "osm_id": 4155152591,
    "osm_type": "node",
    "name": "Food Square",
    "amenity": "fast_food",
    "lat": 52.2806151,
    "lng": 4.838048,
    "address": "Bouwerij 77",
    "city": "Amstelveen",
    "website": null,
    "phone": null,
    "cuisine": "sandwich",
    "outdoor_seating": null,
    "wheelchair": null,
    "opening_hours": null
  },
  {
    "osm_id": 4189537742,
    "osm_type": "node",
    "name": "Eten in de Olmen",
    "amenity": "restaurant",
    "lat": 52.2891856,
    "lng": 4.8724003,
    "address": null,
    "city": null,
    "website": "https://etenindeolmen.nl",
    "phone": null,
    "cuisine": null,
    "outdoor_seating": "yes",
    "wheelchair": "yes",
    "opening_hours": "Tu 17:30-21:00; Th 17:30-21:00"
  },
  {
    "osm_id": 4270081256,
    "osm_type": "node",
    "name": "Sushi Time",
    "amenity": "restaurant",
    "lat": 52.2815024,
    "lng": 4.8260484,
    "address": "Westwijkplein 5",
    "city": "Amstelveen",
    "website": "https://sushitime.nl/",
    "phone": "+31 20 854 0302",
    "cuisine": "japanese",
    "outdoor_seating": null,
    "wheelchair": null,
    "opening_hours": "Mo-Sa 12:00-21:00; Su 16:00-21:00"
  },
  {
    "osm_id": 4270081284,
    "osm_type": "node",
    "name": "Kwalitaria",
    "amenity": "fast_food",
    "lat": 52.2816944,
    "lng": 4.8264605,
    "address": "Westwijkplein 64",
    "city": "Amstelveen",
    "website": "https://www.kwalitaria.nl/vestiging/kwalitaria-westwijkplein",
    "phone": null,
    "cuisine": null,
    "outdoor_seating": null,
    "wheelchair": null,
    "opening_hours": null
  },
  {
    "osm_id": 4270081322,
    "osm_type": "node",
    "name": "Moonlight",
    "amenity": "fast_food",
    "lat": 52.281795,
    "lng": 4.8262188,
    "address": "Westwijkplein 96",
    "city": "Amstelveen",
    "website": "https://www.moonlighttogo.nl/",
    "phone": null,
    "cuisine": "asian",
    "outdoor_seating": null,
    "wheelchair": "yes",
    "opening_hours": null
  },
  {
    "osm_id": 4441589696,
    "osm_type": "node",
    "name": "McDonald's",
    "amenity": "fast_food",
    "lat": 52.2558995,
    "lng": 4.8252817,
    "address": "Zijdelweg 15A",
    "city": "Amstelveen",
    "website": "https://www.mcdonalds.com/nl/nl-nl/location/amstelveen/mcdonalds-uithoorn/zijdelweg-15a/850317.html",
    "phone": "+31 20 238 2555",
    "cuisine": "burger",
    "outdoor_seating": null,
    "wheelchair": null,
    "opening_hours": "08:00-23:00 open \"Restaurant\" || 08:00-24:00 open \"McDrive\""
  },
  {
    "osm_id": 4451850521,
    "osm_type": "node",
    "name": "il Caffe",
    "amenity": "cafe",
    "lat": 52.3209701,
    "lng": 4.8753224,
    "address": "Uilenstede 346",
    "city": "Amstelveen",
    "website": "https://www.il-caffe.nl/",
    "phone": null,
    "cuisine": null,
    "outdoor_seating": null,
    "wheelchair": "yes",
    "opening_hours": null
  },
  {
    "osm_id": 4663473261,
    "osm_type": "node",
    "name": "Vitaminboost",
    "amenity": "fast_food",
    "lat": 52.3020933,
    "lng": 4.8625724,
    "address": null,
    "city": null,
    "website": "https://www.vitaminstore.nl/shop/Amstelveen_Binnenhof",
    "phone": null,
    "cuisine": "juice",
    "outdoor_seating": "no",
    "wheelchair": "yes",
    "opening_hours": null
  },
  {
    "osm_id": 4671412341,
    "osm_type": "node",
    "name": "Loetje",
    "amenity": "restaurant",
    "lat": 52.2969113,
    "lng": 4.9001795,
    "address": "Amstelzijde 37",
    "city": "Amstelveen",
    "website": "https://www.loetje.nl/locaties/amstelveen/",
    "phone": "+31 20 472 1090",
    "cuisine": "steak_house",
    "outdoor_seating": null,
    "wheelchair": null,
    "opening_hours": "Mo-We,Su 10:00-22:00; Th-Sa 10:00-22:30"
  },
  {
    "osm_id": 4671412343,
    "osm_type": "node",
    "name": "Heisa",
    "amenity": "cafe",
    "lat": 52.2972286,
    "lng": 4.8998436,
    "address": "Amstelzijde 45",
    "city": "Amstelveen",
    "website": "https://www.caferestaurantheisa.nl/",
    "phone": null,
    "cuisine": "regional",
    "outdoor_seating": null,
    "wheelchair": null,
    "opening_hours": null
  },
  {
    "osm_id": 4671772774,
    "osm_type": "node",
    "name": "Theehuis",
    "amenity": "cafe",
    "lat": 52.2967893,
    "lng": 4.8881041,
    "address": null,
    "city": null,
    "website": "https://www.elsenhove-horeca.nl/",
    "phone": null,
    "cuisine": null,
    "outdoor_seating": null,
    "wheelchair": null,
    "opening_hours": null
  },
  {
    "osm_id": 4687796965,
    "osm_type": "node",
    "name": "New Peking City",
    "amenity": "restaurant",
    "lat": 52.3023891,
    "lng": 4.8611434,
    "address": null,
    "city": null,
    "website": "https://www.stadshartamstelveen.nl/restaurant/newpekingcity",
    "phone": "+31 20 641 9637",
    "cuisine": "chinese",
    "outdoor_seating": "no",
    "wheelchair": null,
    "opening_hours": "Mo-Su 12:00-22:00"
  },
  {
    "osm_id": 4856576341,
    "osm_type": "node",
    "name": "Sportcafé De Meerkamp",
    "amenity": "fast_food",
    "lat": 52.2883497,
    "lng": 4.852343,
    "address": "Van der Hooplaan 239-a",
    "city": "Amstelveen",
    "website": "http://www.sportcafedemeerkamp.nl",
    "phone": "+31 20 441 6561",
    "cuisine": "burger",
    "outdoor_seating": null,
    "wheelchair": null,
    "opening_hours": null
  },
  {
    "osm_id": 4856576343,
    "osm_type": "node",
    "name": "Grand Café Allsports",
    "amenity": "restaurant",
    "lat": 52.2891076,
    "lng": 4.8528579,
    "address": "Van der Hooplaan 237",
    "city": "Amstelveen",
    "website": "http://www.allsports.nl/faciliteiten/grand-cafe-all-sports/",
    "phone": null,
    "cuisine": null,
    "outdoor_seating": null,
    "wheelchair": "yes",
    "opening_hours": null
  },
  {
    "osm_id": 5352724054,
    "osm_type": "node",
    "name": "Kaya",
    "amenity": "restaurant",
    "lat": 52.3052568,
    "lng": 4.8696266,
    "address": "Karel Doormanweg 4",
    "city": "Amstelveen",
    "website": "https://www.restaurantkaya.nl",
    "phone": "+31 20 345 2555",
    "cuisine": "korean",
    "outdoor_seating": "no",
    "wheelchair": null,
    "opening_hours": null
  },
  {
    "osm_id": 5352724057,
    "osm_type": "node",
    "name": "The Indian Kitchen",
    "amenity": "restaurant",
    "lat": 52.3052353,
    "lng": 4.8697044,
    "address": "Karel Doormanweg 6",
    "city": "Amstelveen",
    "website": "https://www.theindiankitchen.nl",
    "phone": "+31 20 641 5340",
    "cuisine": "indian",
    "outdoor_seating": "yes",
    "wheelchair": null,
    "opening_hours": null
  },
  {
    "osm_id": 5352737379,
    "osm_type": "node",
    "name": "New York Pizza",
    "amenity": "fast_food",
    "lat": 52.3051977,
    "lng": 4.8698507,
    "address": "Karel Doormanweg 10",
    "city": "Amstelveen",
    "website": "https://www.newyorkpizza.nl/vestigingen/pizza-bestellen-amstelveen-karel-doormanweg",
    "phone": "+31 20 641 8040",
    "cuisine": "pizza",
    "outdoor_seating": "yes",
    "wheelchair": null,
    "opening_hours": null
  },
  {
    "osm_id": 5352737380,
    "osm_type": "node",
    "name": "Taco Mundo",
    "amenity": "fast_food",
    "lat": 52.3051789,
    "lng": 4.8699282,
    "address": "Karel Doormanweg 12",
    "city": "Amstelveen",
    "website": "https://www.tacomundo.com/store/taco-mundo-amstelveen",
    "phone": null,
    "cuisine": "mexican",
    "outdoor_seating": "yes",
    "wheelchair": null,
    "opening_hours": "Mo-Su 04:00-22:00"
  },
  {
    "osm_id": 7533671999,
    "osm_type": "node",
    "name": "Johnny's Burger Company",
    "amenity": "fast_food",
    "lat": 52.2933563,
    "lng": 4.861425,
    "address": "Augustinuspark 18",
    "city": "Amstelveen",
    "website": "https://www.johnnys.nl",
    "phone": "+31 20 215 3888",
    "cuisine": "burger",
    "outdoor_seating": null,
    "wheelchair": null,
    "opening_hours": "Mo-Su 12:00-21:45"
  },
  {
    "osm_id": 8592778283,
    "osm_type": "node",
    "name": "The falafel shop",
    "amenity": "fast_food",
    "lat": 52.31287,
    "lng": 4.8767137,
    "address": null,
    "city": null,
    "website": null,
    "phone": null,
    "cuisine": null,
    "outdoor_seating": null,
    "wheelchair": null,
    "opening_hours": null
  },
  {
    "osm_id": 9209324036,
    "osm_type": "node",
    "name": "Lucia's",
    "amenity": "restaurant",
    "lat": 52.3024173,
    "lng": 4.8689753,
    "address": "Stroombaan 1",
    "city": "Amstelveen",
    "website": "https://lucias-restaurant.com/amstelveen-stadshart/",
    "phone": null,
    "cuisine": null,
    "outdoor_seating": "yes",
    "wheelchair": null,
    "opening_hours": null
  },
  {
    "osm_id": 9219688997,
    "osm_type": "node",
    "name": "Amstelveen Snacks",
    "amenity": "fast_food",
    "lat": 52.3207444,
    "lng": 4.8700459,
    "address": null,
    "city": null,
    "website": "https://www.amstelveen-snacks.nl/",
    "phone": null,
    "cuisine": "friture",
    "outdoor_seating": null,
    "wheelchair": null,
    "opening_hours": null
  },
  {
    "osm_id": 9350269922,
    "osm_type": "node",
    "name": "Dunkin'",
    "amenity": "fast_food",
    "lat": 52.3032619,
    "lng": 4.8593351,
    "address": "Stadsplein 8",
    "city": "Amstelveen",
    "website": "https://www.dunkin.nl/",
    "phone": "+31 88 377 8815",
    "cuisine": "donut;coffee_shop",
    "outdoor_seating": null,
    "wheelchair": "yes",
    "opening_hours": "10:00-18:00"
  },
  {
    "osm_id": 9419109322,
    "osm_type": "node",
    "name": "Kai",
    "amenity": "restaurant",
    "lat": 52.2943022,
    "lng": 4.8696839,
    "address": "Laan van de Helende Meesters 14",
    "city": "Amstelveen",
    "website": "https://www.kaiamstelveen.com",
    "phone": "+31 20 3080014",
    "cuisine": "thai",
    "outdoor_seating": null,
    "wheelchair": null,
    "opening_hours": "Mo-Fr 17:00-21:30; Sa-Su 12:00-21:30"
  },
  {
    "osm_id": 10608448839,
    "osm_type": "node",
    "name": "Amber Garden",
    "amenity": "restaurant",
    "lat": 52.3020148,
    "lng": 4.8686776,
    "address": "van Heuven Goedhartlaan 15",
    "city": "Amstelveen",
    "website": "https://ambergarden.nl/",
    "phone": null,
    "cuisine": "chinese",
    "outdoor_seating": null,
    "wheelchair": null,
    "opening_hours": null
  },
  {
    "osm_id": 10724374157,
    "osm_type": "node",
    "name": "Bosterras",
    "amenity": "cafe",
    "lat": 52.3179454,
    "lng": 4.8410544,
    "address": "Nieuwe Kalfjeslaan 25",
    "city": "Amstelveen",
    "website": "http://bosterras.deamsterdamsemanege.nl",
    "phone": "+31 20 643 1342",
    "cuisine": null,
    "outdoor_seating": "yes",
    "wheelchair": null,
    "opening_hours": "Mo-Tu 13:00-22:00; We 11:00-22:00; Th 13:00-22:00; Fr 11:00-22:00; Sa-Su 09:00-18:00"
  },
  {
    "osm_id": 10946182305,
    "osm_type": "node",
    "name": "Indian Street Food & Co",
    "amenity": "restaurant",
    "lat": 52.3051189,
    "lng": 4.8701499,
    "address": "Karel Doormanweg 16",
    "city": "Amstelveen",
    "website": "https://www.indian-streetfood-co-amstelveen.nl/",
    "phone": null,
    "cuisine": "indian",
    "outdoor_seating": "yes",
    "wheelchair": null,
    "opening_hours": "Tu-Fr 16:00-22:00; Sa-Su 13:00-22:00"
  },
  {
    "osm_id": 12728511943,
    "osm_type": "node",
    "name": "Sunday",
    "amenity": "restaurant",
    "lat": 52.3019017,
    "lng": 4.8413766,
    "address": null,
    "city": null,
    "website": null,
    "phone": null,
    "cuisine": null,
    "outdoor_seating": null,
    "wheelchair": null,
    "opening_hours": null
  },
  {
    "osm_id": 12951629668,
    "osm_type": "node",
    "name": "YOYO!",
    "amenity": "cafe",
    "lat": 52.3025943,
    "lng": 4.86174,
    "address": "Binnenhof 86",
    "city": "Amstelveen",
    "website": "https://www.yoyofreshtea.com/shops/yoyo-amstelveen",
    "phone": null,
    "cuisine": "bubble_tea",
    "outdoor_seating": null,
    "wheelchair": null,
    "opening_hours": null
  },
  {
    "osm_id": 13190334717,
    "osm_type": "node",
    "name": "Burgerlijk",
    "amenity": "fast_food",
    "lat": 52.3120027,
    "lng": 4.8471308,
    "address": "Amsterdamseweg 198",
    "city": "Amstelveen",
    "website": "https://www.burgerlijkamstelveen.nl",
    "phone": "+31 20 7865964",
    "cuisine": "burger",
    "outdoor_seating": null,
    "wheelchair": "yes",
    "opening_hours": "Mo-Su 17:00-21:00"
  },
  {
    "osm_id": 13235359679,
    "osm_type": "node",
    "name": "De Bosbaan",
    "amenity": "cafe",
    "lat": 52.3290336,
    "lng": 4.8539333,
    "address": "Bosbaan 4",
    "city": "Amstelveen",
    "website": "https://www.debosbaan.nl/",
    "phone": "+31 20 4044869",
    "cuisine": "breakfast;diner;french;mediterranean",
    "outdoor_seating": null,
    "wheelchair": null,
    "opening_hours": "Mo-Su 09:00-20:00"
  },
  {
    "osm_id": 13418616384,
    "osm_type": "node",
    "name": "De Boshalte",
    "amenity": "cafe",
    "lat": 52.3280894,
    "lng": 4.8561681,
    "address": "Bosbaanweg 1",
    "city": "Amstelveen",
    "website": "https://deboshalte.com",
    "phone": null,
    "cuisine": "coffee_shop",
    "outdoor_seating": null,
    "wheelchair": null,
    "opening_hours": "We-Su 10:00-18:00"
  },
  {
    "osm_id": 273264240,
    "osm_type": "way",
    "name": "De Bosburger",
    "amenity": "cafe",
    "lat": 52.3214208,
    "lng": 4.8485211,
    "address": null,
    "city": null,
    "website": null,
    "phone": null,
    "cuisine": null,
    "outdoor_seating": "yes",
    "wheelchair": null,
    "opening_hours": null
  }
]