[
  {
    "osm_id": 562938511,
    "osm_type": "node",
    "name": "Wildeman",
    "amenity": "cafe",
    "lat": 52.4325393,
    "lng": 4.6449395,
    "address": null,
    "city": null,
    "website": null,
    "phone": null,
    "cuisine": null,
    "outdoor_seating": null,
    "wheelchair": null,
    "opening_hours": null
  },
  {
    "osm_id": 562938514,
    "osm_type": "node",
    "name": "Bartje",
    "amenity": "cafe",
    "lat": 52.4318827,
    "lng": 4.6445383,
    "address": "Hoofdstraat 150",
    "city": "Santpoort-Noord",
    "website": null,
    "phone": null,
    "cuisine": null,
    "outdoor_seating": null,
    "wheelchair": null,
    "opening_hours": null
  },
  {
    "osm_id": 563254886,
    "osm_type": "node",
    "name": "Palet",
    "amenity": "restaurant",
    "lat": 52.4316875,
    "lng": 4.6444372,
    "address": "Hoofdstraat 152",
    "city": "Santpoort-Noord",
    "website": "http://www.eetlokaalpalet.nl/",
    "phone": null,
    "cuisine": null,
    "outdoor_seating": null,
    "wheelchair": null,
    "opening_hours": null
  },
  {
    "osm_id": 563255669,
    "osm_type": "node",
    "name": "Meijerij",
    "amenity": "restaurant",
    "lat": 52.43006,
    "lng": 4.6440337,
    "address": "Hoofdstraat 204",
    "city": "Santpoort-Noord",
    "website": "https://www.meierijsantpoort.nl/",
    "phone": null,
    "cuisine": null,
    "outdoor_seating": null,
    "wheelchair": null,
    "opening_hours": null
  },
  {
    "osm_id": 618321278,
    "osm_type": "node",
    "name": "Fontana",
    "amenity": "restaurant",
    "lat": 52.4350101,
    "lng": 4.6590428,
    "address": "Velserbroekse Dreef 1",
    "city": "Velserbroek",
    "website": "https://www.restaurantfontana.nl/",
    "phone": null,
    "cuisine": "chinese",
    "outdoor_seating": null,
    "wheelchair": null,
    "opening_hours": null
  },
  {
    "osm_id": 675650910,
    "osm_type": "node",
    "name": "Boschbeek",
    "amenity": "restaurant",
    "lat": 52.4239978,
    "lng": 4.6389332,
    "address": null,
    "city": null,
    "website": "https://boschbeek.nl/",
    "phone": null,
    "cuisine": "regional",
    "outdoor_seating": null,
    "wheelchair": null,
    "opening_hours": "Mo-Su 11:00-22:00"
  },
  {
    "osm_id": 706944372,
    "osm_type": "node",
    "name": "Villa Westend",
    "amenity": "restaurant",
    "lat": 52.4244478,
    "lng": 4.6730807,
    "address": null,
    "city": null,
    "website": null,
    "phone": null,
    "cuisine": null,
    "outdoor_seating": null,
    "wheelchair": null,
    "opening_hours": null
  },
  {
    "osm_id": 949879938,
    "osm_type": "node",
    "name": "Sea You",
    "amenity": "restaurant",
    "lat": 52.4689858,
    "lng": 4.5722064,
    "address": "Reyndersweg 2",
    "city": "Velsen-Noord",
    "website": "https://www.sea-you.nl",
    "phone": "+31 251 374 922",
    "cuisine": null,
    "outdoor_seating": null,
    "wheelchair": null,
    "opening_hours": "We-Sa 11:00-23:00; Su 12:00-23:00"
  },
  {
    "osm_id": 992900101,
    "osm_type": "node",
    "name": "Aloha",
    "amenity": "restaurant",
    "lat": 52.469428,
    "lng": 4.568285,
    "address": "Reyndersweg 7",
    "city": "Velsen-Noord",
    "website": null,
    "phone": null,
    "cuisine": null,
    "outdoor_seating": null,
    "wheelchair": "limited",
    "opening_hours": null
  },
  {
    "osm_id": 1094229546,
    "osm_type": "node",
    "name": "Eetcafé DC",
    "amenity": "restaurant",
    "lat": 52.4732129,
    "lng": 4.6459048,
    "address": "Wijkerstraatweg 195",
    "city": "Velsen-Noord",
    "website": null,
    "phone": null,
    "cuisine": null,
    "outdoor_seating": null,
    "wheelchair": null,
    "opening_hours": null
  },
  {
    "osm_id": 1529462126,
    "osm_type": "node",
    "name": "Brasserie Beeckestijn",
    "amenity": "restaurant",
    "lat": 52.4529453,
    "lng": 4.652039,
    "address": null,
    "city": null,
    "website": null,
    "phone": null,
    "cuisine": "french",
    "outdoor_seating": null,
    "wheelchair": null,
    "opening_hours": null
  },
  {
    "osm_id": 1783043637,
    "osm_type": "node",
    "name": "Pannenkoekenboerderij Onder De Platanen",
    "amenity": "restaurant",
    "lat": 52.4297152,
    "lng": 4.6849701,
    "address": "Genieweg 50B",
    "city": "Velsen-Zuid",
    "website": "https://www.onderdeplatanen.nl/",
    "phone": null,
    "cuisine": "pancake",
    "outdoor_seating": null,
    "wheelchair": null,
    "opening_hours": "Mo-Fr 09:30-17:00; Sa,Su 09:30-18:00"
  },
  {
    "osm_id": 2367468092,
    "osm_type": "node",
    "name": "'Ai maika'i",
    "amenity": "restaurant",
    "lat": 52.4570033,
    "lng": 4.5578247,
    "address": "Kennemerstrand 160",
    "city": "IJmuiden",
    "website": null,
    "phone": "+31 6 53862474",
    "cuisine": null,
    "outdoor_seating": "yes",
    "wheelchair": null,
    "opening_hours": null
  },
  {
    "osm_id": 2367468094,
    "osm_type": "node",
    "name": "ZanDiego Beach - Lokatie Zuid",
    "amenity": "restaurant",
    "lat": 52.4566655,
    "lng": 4.5578398,
    "address": "Kennemerstrand 172",
    "city": "IJmuiden",
    "website": "https://www.zandiego.nl/",
    "phone": null,
    "cuisine": null,
    "outdoor_seating": "yes",
    "wheelchair": null,
    "opening_hours": null
  },
  {
    "osm_id": 2367468096,
    "osm_type": "node",
    "name": "Zilt aan Zee",
    "amenity": "restaurant",
    "lat": 52.4561178,
    "lng": 4.5581738,
    "address": "Kennemerstrand 174",
    "city": "IJmuiden",
    "website": "https://www.ziltaanzee.nl/",
    "phone": "+31 255 519 300",
    "cuisine": null,
    "outdoor_seating": "yes",
    "wheelchair": "limited",
    "opening_hours": "Mo-Th 10:00-17:00; Fr-Su 10:00-20:00"
  },
  {
    "osm_id": 2367468097,
    "osm_type": "node",
    "name": "Paviljoen Noordzee",
    "amenity": "restaurant",
    "lat": 52.4557569,
    "lng": 4.5585027,
    "address": "Kennemerstrand 178",
    "city": "IJmuiden",
    "website": "https://paviljoennoordzee.nl",
    "phone": "+31 255 514 004",
    "cuisine": null,
    "outdoor_seating": "yes",
    "wheelchair": "limited",
    "opening_hours": null
  },
  {
    "osm_id": 2367468098,
    "osm_type": "node",
    "name": "Strandpaviljoen Zeezicht",
    "amenity": "restaurant",
    "lat": 52.4552595,
    "lng": 4.5588343,
    "address": "Kennemerstrand 180",
    "city": "IJmuiden",
    "website": "https://www.paviljoenzeezicht.nl",
    "phone": "+31 255 514 056;+31 6 24858927",
    "cuisine": null,
    "outdoor_seating": "yes",
    "wheelchair": null,
    "opening_hours": null
  },
  {
    "osm_id": 2367468099,
    "osm_type": "node",
    "name": "Paviljoen Nova Zembla",
    "amenity": "restaurant",
    "lat": 52.4558788,
    "lng": 4.5637366,
    "address": "Kennemermeer 25",
    "city": "IJmuiden",
    "website": "https://www.pbn.nl/locaties/paviljoen-nova-zembla",
    "phone": null,
    "cuisine": null,
    "outdoor_seating": null,
    "wheelchair": null,
    "opening_hours": null
  },
  {
    "osm_id": 2367468114,
    "osm_type": "node",
    "name": "Snackbar Evi",
    "amenity": "fast_food",
    "lat": 52.4565738,
    "lng": 4.5600264,
    "address": "Kennemerboulevard 428",
    "city": "IJmuiden",
    "website": null,
    "phone": null,
    "cuisine": "regional",
    "outdoor_seating": null,
    "wheelchair": null,
    "opening_hours": null
  },
  {
    "osm_id": 2367556964,
    "osm_type": "node",
    "name": "Beach Inn",
    "amenity": "restaurant",
    "lat": 52.4479548,
    "lng": 4.5607175,
    "address": "Kennemerstrand 800",
    "city": "IJmuiden",
    "website": "https://beachinn.nl",
    "phone": "+31 255 520 222",
    "cuisine": null,
    "outdoor_seating": "yes",
    "wheelchair": null,
    "opening_hours": "Mo-Su 10:00-22:00"
  },
  {
    "osm_id": 2736290181,
    "osm_type": "node",
    "name": "Villa Zomerdijk",
    "amenity": "restaurant",
    "lat": 52.4440005,
    "lng": 4.688141,
    "address": "Genieweg 1",
    "city": "Velsen-Zuid",
    "website": "https://www.villazomerdijk.nl/",
    "phone": null,
    "cuisine": null,
    "outdoor_seating": null,
    "wheelchair": null,
    "opening_hours": "\"Private Dining by Reservation Only\""
  },
  {
    "osm_id": 2772513864,
    "osm_type": "node",
    "name": "Klein Centraal Santpoort-Zuid",
    "amenity": "restaurant",
    "lat": 52.4192642,
    "lng": 4.6310629,
    "address": "Willem de Zwijgerlaan 61",
    "city": "Santpoort-Zuid",
    "website": null,
    "phone": null,
    "cuisine": null,
    "outdoor_seating": null,
    "wheelchair": null,
    "opening_hours": null
  },
  {
    "osm_id": 2772672280,
    "osm_type": "node",
    "name": "Snacks & Catering Peter",
    "amenity": "restaurant",
    "lat": 52.4343515,
    "lng": 4.6438646,
    "address": "Hagelingerweg 165-RD",
    "city": "Santpoort-Noord",
    "website": null,
    "phone": null,
    "cuisine": null,
    "outdoor_seating": null,
    "wheelchair": null,
    "opening_hours": null
  },
  {
    "osm_id": 2772672994,
    "osm_type": "node",
    "name": "Ramsis",
    "amenity": "restaurant",
    "lat": 52.4306621,
    "lng": 4.644071,
    "address": "Hoofdstraat 186",
    "city": "Santpoort-Noord",
    "website": "https://www.ramsis.nl/",
    "phone": null,
    "cuisine": "pizza;kebab",
    "outdoor_seating": null,
    "wheelchair": null,
    "opening_hours": null
  },
  {
    "osm_id": 2772673002,
    "osm_type": "node",
    "name": "Dingespoort",
    "amenity": "restaurant",
    "lat": 52.4306123,
    "lng": 4.6440716,
    "address": "Hoofdstraat 188",
    "city": "Santpoort-Noord",
    "website": "https://www.dingespoort-santpoort-noord.nl/",
    "phone": null,
    "cuisine": null,
    "outdoor_seating": null,
    "wheelchair": null,
    "opening_hours": null
  },
  {
    "osm_id": 2772673085,
    "osm_type": "node",
    "name": "Laantje",
    "amenity": "restaurant",
    "lat": 52.4305764,
    "lng": 4.6440772,
    "address": "Hoofdstraat 190",
    "city": "Santpoort-Noord",
    "website": null,
    "phone": null,
    "cuisine": null,
    "outdoor_seating": null,
    "wheelchair": null,
    "opening_hours": null
  },
  {
    "osm_id": 2772676906,
    "osm_type": "node",
    "name": "Chen Tong Kong",
    "amenity": "restaurant",
    "lat": 52.4308449,
    "lng": 4.6423605,
    "address": "Terrasweg 34",
    "city": "Santpoort-Noord",
    "website": "http://chentongkong.nl/",
    "phone": "+31 23 537 0550",
    "cuisine": "chinese",
    "outdoor_seating": null,
    "wheelchair": null,
    "opening_hours": "Mo-Sa 16:00-22:00; Su 12:00-22:00"
  },
  {
    "osm_id": 2772676959,
    "osm_type": "node",
    "name": "Bierbrasserie Koster",
    "amenity": "cafe",
    "lat": 52.4340368,
    "lng": 4.6444243,
    "address": "Hagelingerweg 36",
    "city": "Santpoort-Noord",
    "website": "https://bierbrasseriekoster.nl",
    "phone": "+31 6 43997541",
    "cuisine": null,
    "outdoor_seating": null,
    "wheelchair": null,
    "opening_hours": null
  },
  {
    "osm_id": 2772677447,
    "osm_type": "node",
    "name": "Chinees-Indisch Restaurant Manor",
    "amenity": "restaurant",
    "lat": 52.4342728,
    "lng": 4.6443556,
    "address": "Hagelingerweg 42",
    "city": "Santpoort-Noord",
    "website": null,
    "phone": null,
    "cuisine": "chinese",
    "outdoor_seating": null,
    "wheelchair": null,
    "opening_hours": null
  },
  {
    "osm_id": 2772677635,
    "osm_type": "node",
    "name": "Koppes Snacks",
    "amenity": "cafe",
    "lat": 52.4326344,
    "lng": 4.6443787,
    "address": "Hagelingerweg 47",
    "city": "Santpoort-Noord",
    "website": null,
    "phone": null,
    "cuisine": null,
    "outdoor_seating": null,
    "wheelchair": null,
    "opening_hours": null
  },
  {
    "osm_id": 2772679247,
    "osm_type": "node",
    "name": "Duin- en Kruidberg",
    "amenity": "restaurant",
    "lat": 52.4342709,
    "lng": 4.6255569,
    "address": "Duin- en Kruidbergerweg 60",
    "city": "Santpoort-Noord",
    "website": "https://www.duin-kruidberg.nl/fijnproeven",
    "phone": null,
    "cuisine": "fine_dining",
    "outdoor_seating": null,
    "wheelchair": null,
    "opening_hours": null
  },
  {
    "osm_id": 2773191541,
    "osm_type": "node",
    "name": "Petit Café Westerveld",
    "amenity": "cafe",
    "lat": 52.4451505,
    "lng": 4.6316794,
    "address": "Duin- en Kruidbergerweg 6",
    "city": "Driehuis NH",
    "website": null,
    "phone": null,
    "cuisine": null,
    "outdoor_seating": null,
    "wheelchair": null,
    "opening_hours": null
  },
  {
    "osm_id": 2773191684,
    "osm_type": "node",
    "name": "IJspaleis Driehuis",
    "amenity": "ice_cream",
    "lat": 52.4488717,
    "lng": 4.6379559,
    "address": "Driehuizerkerkweg 61",
    "city": "Driehuis NH",
    "website": null,
    "phone": null,
    "cuisine": null,
    "outdoor_seating": "yes",
    "wheelchair": "no",
    "opening_hours": null
  },
  {
    "osm_id": 2773192458,
    "osm_type": "node",
    "name": "Grand Café Valerius",
    "amenity": "restaurant",
    "lat": 52.4484271,
    "lng": 4.6370058,
    "address": "Valeriuslaan 86",
    "city": "Driehuis NH",
    "website": "https://grandcafevalerius.nl/",
    "phone": null,
    "cuisine": null,
    "outdoor_seating": null,
    "wheelchair": null,
    "opening_hours": null
  },
  {
    "osm_id": 2773460330,
    "osm_type": "node",
    "name": "Rose Garden",
    "amenity": "fast_food",
    "lat": 52.4585161,
    "lng": 4.6302505,
    "address": "Tussenbeeksweg 60;62",
    "city": "IJmuiden",
    "website": "https://www.rosegardenijmuiden.nl/",
    "phone": "+31 255 511 238",
    "cuisine": "chinese",
    "outdoor_seating": null,
    "wheelchair": null,
    "opening_hours": "Tu-Su 12:00-21:00"
  },
  {
    "osm_id": 2773634991,
    "osm_type": "node",
    "name": "Mr. Shi",
    "amenity": "restaurant",
    "lat": 52.4493953,
    "lng": 4.5963187,
    "address": "Zeewijkplein 161;127",
    "city": "IJmuiden",
    "website": "https://www.mistershiijmuiden.nl/",
    "phone": "+31 255 510 976",
    "cuisine": "chinese;burger",
    "outdoor_seating": null,
    "wheelchair": null,
    "opening_hours": null
  },
  {
    "osm_id": 2773737003,
    "osm_type": "node",
    "name": "Brasserie Sylz",
    "amenity": "cafe",
    "lat": 52.4588085,
    "lng": 4.6160356,
    "address": "Velserhof 103",
    "city": "IJmuiden",
    "website": "https://brasseriesylz.nl/",
    "phone": "+31 255 511211",
    "cuisine": null,
    "outdoor_seating": null,
    "wheelchair": null,
    "opening_hours": null
  },
  {
    "osm_id": 2773761570,
    "osm_type": "node",
    "name": "Rhodos",
    "amenity": "restaurant",
    "lat": 52.4600885,
    "lng": 4.6242969,
    "address": "Plein 1945 4",
    "city": "IJmuiden",
    "website": "https://rhodosijmuiden.nl/",
    "phone": "+31 255 512 555",
    "cuisine": "greek",
    "outdoor_seating": null,
    "wheelchair": null,
    "opening_hours": "Mo-Su 16:30-21:00"
  },
  {
    "osm_id": 2773761774,
    "osm_type": "node",
    "name": "IJscuypje",
    "amenity": "ice_cream",
    "lat": 52.4582651,
    "lng": 4.6158491,
    "address": "Marktplein 42",
    "city": "IJmuiden",
    "website": "https://www.ijscuypje.nl/",
    "phone": "+31 20 617 0039",
    "cuisine": null,
    "outdoor_seating": null,
    "wheelchair": null,
    "opening_hours": "Mo-Su 12:00-21:00"
  },
  {
    "osm_id": 2773761799,
    "osm_type": "node",
    "name": "Kota Radja",
    "amenity": "restaurant",
    "lat": 52.4584776,
    "lng": 4.6174286,
    "address": "Lange Nieuwstraat 425",
    "city": "IJmuiden",
    "website": "https://kotaradjaijmuiden.nl",
    "phone": "+31 255 513636",
    "cuisine": "chinese;indian",
    "outdoor_seating": null,
    "wheelchair": null,
    "opening_hours": "Tu-Su 15:30-21:00"
  },
  {
    "osm_id": 2773761899,
    "osm_type": "node",
    "name": "Bunch ijsje",
    "amenity": "ice_cream",
    "lat": 52.4585451,
    "lng": 4.6183286,
    "address": "Lange Nieuwstraat 449B",
    "city": "IJmuiden",
    "website": "https://www.bunchburgers.nl/ijsje",
    "phone": "+31 255 524735",
    "cuisine": null,
    "outdoor_seating": null,
    "wheelchair": null,
    "opening_hours": "Mo-Su 12:00-20:00"
  },
  {
    "osm_id": 2773761932,
    "osm_type": "node",
    "name": "Wok-vers",
    "amenity": "fast_food",
    "lat": 52.4585851,
    "lng": 4.6185882,
    "address": "Lange Nieuwstraat 451A",
    "city": "IJmuiden",
    "website": null,
    "phone": "+31 255 700222",
    "cuisine": "chinese",
    "outdoor_seating": null,
    "wheelchair": null,
    "opening_hours": "Mo-Su 16:00-21:15"
  },
  {
    "osm_id": 2773761953,
    "osm_type": "node",
    "name": "Grillroom Avrasya",
    "amenity": "fast_food",
    "lat": 52.4589637,
    "lng": 4.6156089,
    "address": "Marktplein 46",
    "city": "IJmuiden",
    "website": null,
    "phone": null,
    "cuisine": "kebab",
    "outdoor_seating": null,
    "wheelchair": null,
    "opening_hours": null
  },
  {
    "osm_id": 2773763170,
    "osm_type": "node",
    "name": "Indian Tandoori King",
    "amenity": "restaurant",
    "lat": 52.4587498,
    "lng": 4.6195233,
    "address": "Lange Nieuwstraat 493A",
    "city": "IJmuiden",
    "website": "https://www.indiantandooriking.nl/",
    "phone": "+31 255 577 097",
    "cuisine": "indian",
    "outdoor_seating": null,
    "wheelchair": null,
    "opening_hours": "Mo 16:30-20:45; Tu-Su 16:30-22:00"
  },
  {
    "osm_id": 2773764148,
    "osm_type": "node",
    "name": "Frederik ambachtelijke friet",
    "amenity": "restaurant",
    "lat": 52.4589581,
    "lng": 4.6162067,
    "address": "Marktplein 60",
    "city": "IJmuiden",
    "website": "https://frederikambachtelijkefriet-ijmuiden.nl/",
    "phone": null,
    "cuisine": "fries",
    "outdoor_seating": null,
    "wheelchair": null,
    "opening_hours": null
  },
  {
    "osm_id": 2773764350,
    "osm_type": "node",
    "name": "SushiPoint",
    "amenity": "fast_food",
    "lat": 52.4606993,
    "lng": 4.6061514,
    "address": "Kennemerlaan 63",
    "city": "IJmuiden",
    "website": "https://www.sushipoint.nl/sushi-ijmuiden",
    "phone": null,
    "cuisine": "sushi",
    "outdoor_seating": null,
    "wheelchair": null,
    "opening_hours": null
  },
  {
    "osm_id": 2773764960,
    "osm_type": "node",
    "name": "Döner Abi",
    "amenity": "fast_food",
    "lat": 52.4595112,
    "lng": 4.6233933,
    "address": "Lange Nieuwstraat 779",
    "city": "IJmuiden",
    "website": "https://www.donerabiijmuiden-ijmuiden.nl/contact",
    "phone": null,
    "cuisine": "kebab",
    "outdoor_seating": null,
    "wheelchair": null,
    "opening_hours": "Mo,Tu,We,Th,Su 16:00-01:00; Fr,Sa 16:00-02:00"
  },
  {
    "osm_id": 2773765084,
    "osm_type": "node",
    "name": "Grand Café Staal",
    "amenity": "restaurant",
    "lat": 52.4596838,
    "lng": 4.6243758,
    "address": "Lange Nieuwstraat 799",
    "city": "IJmuiden",
    "website": "https://www.grandcafestaal.nl/",
    "phone": "+31 255 501 525",
    "cuisine": null,
    "outdoor_seating": null,
    "wheelchair": "limited",
    "opening_hours": "Mo-Su 10:00-23:00"
  },
  {
    "osm_id": 2775673150,
    "osm_type": "node",
    "name": "Snackbar Café De Planeet",
    "amenity": "fast_food",
    "lat": 52.4563172,
    "lng": 4.6034878,
    "address": "Planetenweg 4",
    "city": "IJmuiden",
    "website": null,
    "phone": null,
    "cuisine": null,
    "outdoor_seating": null,
    "wheelchair": null,
    "opening_hours": null
  },
  {
    "osm_id": 2775712018,
    "osm_type": "node",
    "name": "Spijkers IJmuiden",
    "amenity": "restaurant",
    "lat": 52.4602641,
    "lng": 4.5942129,
    "address": "Kruitenstraat 1",
    "city": "IJmuiden",
    "website": "https://www.spijkers-ijmuiden.nl",
    "phone": null,
    "cuisine": "burger;international;fish;pizza",
    "outdoor_seating": "yes",
    "wheelchair": "limited",
    "opening_hours": "Mo-Su 11:00-21:30"
  },
  {
    "osm_id": 2775712059,
    "osm_type": "node",
    "name": "BijHENC",
    "amenity": "restaurant",
    "lat": 52.4631805,
    "lng": 4.5903067,
    "address": "Visseringstraat 1",
    "city": "IJmuiden",
    "website": "https://www.bijhenc.nl",
    "phone": "+31 255 520 086",
    "cuisine": null,
    "outdoor_seating": null,
    "wheelchair": null,
    "opening_hours": "Mo-We 17:00-19:00; Th-Sa 12:00-22:00"
  },
  {
    "osm_id": 2775715400,
    "osm_type": "node",
    "name": "The Harbour Espressobar",
    "amenity": "cafe",
    "lat": 52.4592872,
    "lng": 4.595303,
    "address": "Halkade 19A",
    "city": "IJmuiden",
    "website": null,
    "phone": null,
    "cuisine": "coffee_shop",
    "outdoor_seating": "yes",
    "wheelchair": null,
    "opening_hours": "Tu-Fr 1030-16:30; Sa-Su 10:00-14:00"
  },
  {
    "osm_id": 2775715904,
    "osm_type": "node",
    "name": "De Dolfijn",
    "amenity": "restaurant",
    "lat": 52.4590596,
    "lng": 4.5959339,
    "address": "Halkade 25",
    "city": "IJmuiden",
    "website": "https://www.ijmuiden.nl/locatie/de-dolfijn-de-boerenroker/",
    "phone": null,
    "cuisine": "fish",
    "outdoor_seating": null,
    "wheelchair": "yes",
    "opening_hours": null
  },
  {
    "osm_id": 2775716369,
    "osm_type": "node",
    "name": "Minato",
    "amenity": "restaurant",
    "lat": 52.4589275,
    "lng": 4.5963329,
    "address": "Halkade 31",
    "city": "IJmuiden",
    "website": "https://www.snelsushi.nl/",
    "phone": null,
    "cuisine": "japanese",
    "outdoor_seating": null,
    "wheelchair": null,
    "opening_hours": null
  },
  {
    "osm_id": 2775719100,
    "osm_type": "node",
    "name": "Kop Van de Haven",
    "amenity": "restaurant",
    "lat": 52.4632387,
    "lng": 4.5834614,
    "address": "Sluisplein 80",
    "city": "IJmuiden",
    "website": "https://www.kopvandehaven.nl/",
    "phone": null,
    "cuisine": "fish",
    "outdoor_seating": null,
    "wheelchair": null,
    "opening_hours": null
  },
  {
    "osm_id": 2775822228,
    "osm_type": "node",
    "name": "La Maranda",
    "amenity": "restaurant",
    "lat": 52.4458028,
    "lng": 4.5666247,
    "address": "IJmuiderslag 100",
    "city": "IJmuiden",
    "website": null,
    "phone": "+31 255 536 000",
    "cuisine": "international",
    "outdoor_seating": null,
    "wheelchair": null,
    "opening_hours": null
  },
  {
    "osm_id": 2775823367,
    "osm_type": "node",
    "name": "Wok four You",
    "amenity": "restaurant",
    "lat": 52.4546658,
    "lng": 4.5851505,
    "address": "Kromhoutstraat 44",
    "city": "IJmuiden",
    "website": null,
    "phone": null,
    "cuisine": null,
    "outdoor_seating": null,
    "wheelchair": null,
    "opening_hours": null
  },
  {
    "osm_id": 2776053274,
    "osm_type": "node",
    "name": "Visrokerij Gebr. Smeding",
    "amenity": "restaurant",
    "lat": 52.4574742,
    "lng": 4.5788893,
    "address": "Rondweg 34",
    "city": "IJmuiden",
    "website": null,
    "phone": null,
    "cuisine": "fish_and_chips",
    "outdoor_seating": null,
    "wheelchair": null,
    "opening_hours": null
  },
  {
    "osm_id": 2776054031,
    "osm_type": "node",
    "name": "De Meerplaats",
    "amenity": "restaurant",
    "lat": 52.4583282,
    "lng": 4.5914125,
    "address": "Trawlerkade 80",
    "city": "IJmuiden",
    "website": "https://www.meerplaats.nl/2021/",
    "phone": null,
    "cuisine": "fish",
    "outdoor_seating": null,
    "wheelchair": null,
    "opening_hours": null
  },
  {
    "osm_id": 2776086096,
    "osm_type": "node",
    "name": "'t Praathuis",
    "amenity": "cafe",
    "lat": 52.4681521,
    "lng": 4.6560822,
    "address": "Wijkermeerweg 5",
    "city": "Velsen-Noord",
    "website": "https://www.vtvwijkeroog.nl/praathuis/info-1",
    "phone": null,
    "cuisine": "regional;sandwich",
    "outdoor_seating": "yes",
    "wheelchair": null,
    "opening_hours": null
  },
  {
    "osm_id": 2776202596,
    "osm_type": "node",
    "name": "Timboektoe",
    "amenity": "restaurant",
    "lat": 52.4686283,
    "lng": 4.5681895,
    "address": "Reyndersweg 1",
    "city": "Velsen-Noord",
    "website": "https://timboektoe.org/",
    "phone": null,
    "cuisine": null,
    "outdoor_seating": null,
    "wheelchair": "limited",
    "opening_hours": "Apr-Sep Mo-Su 10:00-22:00; Oct-Mar Mo-Th 10:00-17:00; Oct-Mar Fr-Su 10:00-22:00"
  },
  {
    "osm_id": 4169984035,
    "osm_type": "node",
    "name": "Stefler's",
    "amenity": "restaurant",
    "lat": 52.4589557,
    "lng": 4.5962551,
    "address": null,
    "city": null,
    "website": null,
    "phone": null,
    "cuisine": "fish",
    "outdoor_seating": null,
    "wheelchair": null,
    "opening_hours": null
  },
  {
    "osm_id": 4209866849,
    "osm_type": "node",
    "name": "Gerard van Es",
    "amenity": "restaurant",
    "lat": 52.4565142,
    "lng": 4.5923144,
    "address": "Industriestraat 59",
    "city": "IJmuiden",
    "website": "https://gerardvanes.nl/",
    "phone": null,
    "cuisine": "seafood",
    "outdoor_seating": null,
    "wheelchair": null,
    "opening_hours": null
  },
  {
    "osm_id": 4339459764,
    "osm_type": "node",
    "name": "Kinko",
    "amenity": "restaurant",
    "lat": 52.4564818,
    "lng": 4.559835,
    "address": null,
    "city": null,
    "website": "https://kinko.nl/",
    "phone": null,
    "cuisine": "japanese",
    "outdoor_seating": null,
    "wheelchair": null,
    "opening_hours": null
  },
  {
    "osm_id": 4339459765,
    "osm_type": "node",
    "name": "Bangkok aan Zee",
    "amenity": "restaurant",
    "lat": 52.4567123,
    "lng": 4.5611385,
    "address": null,
    "city": null,
    "website": null,
    "phone": null,
    "cuisine": "thai",
    "outdoor_seating": null,
    "wheelchair": null,
    "opening_hours": null
  },
  {
    "osm_id": 4339459766,
    "osm_type": "node",
    "name": "Pan&Cook",
    "amenity": "restaurant",
    "lat": 52.4568414,
    "lng": 4.5618842,
    "address": null,
    "city": null,
    "website": null,
    "phone": null,
    "cuisine": "pancake",
    "outdoor_seating": null,
    "wheelchair": null,
    "opening_hours": null
  },
  {
    "osm_id": 4339470072,
    "osm_type": "node",
    "name": "Eetcafé Sultan",
    "amenity": "fast_food",
    "lat": 52.4555353,
    "lng": 4.5988761,
    "address": "Cepheusstraat 27",
    "city": "IJmuiden",
    "website": null,
    "phone": null,
    "cuisine": null,
    "outdoor_seating": null,
    "wheelchair": null,
    "opening_hours": null
  },
  {
    "osm_id": 4449603253,
    "osm_type": "node",
    "name": "Sportcafé Nol",
    "amenity": "cafe",
    "lat": 52.4519644,
    "lng": 4.5999045,
    "address": "Planetenweg 301B",
    "city": "IJmuiden",
    "website": null,
    "phone": null,
    "cuisine": "local",
    "outdoor_seating": null,
    "wheelchair": null,
    "opening_hours": null
  },
  {
    "osm_id": 5259222437,
    "osm_type": "node",
    "name": "Chi Ling",
    "amenity": "restaurant",
    "lat": 52.4569481,
    "lng": 4.5623131,
    "address": null,
    "city": null,
    "website": "https://www.chiling.nl/",
    "phone": "+31 255 512 879",
    "cuisine": "chinese",
    "outdoor_seating": null,
    "wheelchair": null,
    "opening_hours": null
  },
  {
    "osm_id": 5308117479,
    "osm_type": "node",
    "name": "de Driehoek",
    "amenity": "fast_food",
    "lat": 52.4344476,
    "lng": 4.6595064,
    "address": "Galle Promenade 25",
    "city": "Velserbroek",
    "website": null,
    "phone": null,
    "cuisine": "burger",
    "outdoor_seating": null,
    "wheelchair": "yes",
    "opening_hours": null
  },
  {
    "osm_id": 5308117484,
    "osm_type": "node",
    "name": "Pizza Service Velserbroek",
    "amenity": "fast_food",
    "lat": 52.4345015,
    "lng": 4.6581895,
    "address": "Velserbroekse Dreef 19",
    "city": "Velserbroek",
    "website": "https://www.pizzaservice-velserbroek.nl/",
    "phone": null,
    "cuisine": "pizza",
    "outdoor_seating": null,
    "wheelchair": null,
    "opening_hours": null
  },
  {
    "osm_id": 5607781905,
    "osm_type": "node",
    "name": "Hightide Surf & Food",
    "amenity": "restaurant",
    "lat": 52.4475904,
    "lng": 4.5606142,
    "address": "Kennemerstrand 802",
    "city": "IJmuiden",
    "website": null,
    "phone": "+31 6 15097289",
    "cuisine": "european",
    "outdoor_seating": "yes",
    "wheelchair": null,
    "opening_hours": "We-Su 10:00-22:00"
  },
  {
    "osm_id": 6700333961,
    "osm_type": "node",
    "name": "Friet van Piet",
    "amenity": "fast_food",
    "lat": 52.4600456,
    "lng": 4.6069225,
    "address": "Kennemerplein 21B",
    "city": "IJmuiden",
    "website": null,
    "phone": null,
    "cuisine": null,
    "outdoor_seating": null,
    "wheelchair": null,
    "opening_hours": null
  },
  {
    "osm_id": 7861527585,
    "osm_type": "node",
    "name": "Bunch",
    "amenity": "restaurant",
    "lat": 52.4586102,
    "lng": 4.6182264,
    "address": "Lange Nieuwstraat 449",
    "city": "IJmuiden",
    "website": "https://www.bunchburgers.nl/",
    "phone": "+31 255 524735",
    "cuisine": null,
    "outdoor_seating": null,
    "wheelchair": null,
    "opening_hours": "Mo-Sa 10:00-20:00; Su 12:00-20:00"
  },
  {
    "osm_id": 9045130895,
    "osm_type": "node",
    "name": "Snackbar Rocky",
    "amenity": "fast_food",
    "lat": 52.4599831,
    "lng": 4.6195115,
    "address": "Velserduinplein 7",
    "city": "IJmuiden",
    "website": "https://www.snackbarrocky-ijmuiden.nl;https://snackbar-rocky.business.site/",
    "phone": "+31 255 516 462",
    "cuisine": null,
    "outdoor_seating": "yes",
    "wheelchair": null,
    "opening_hours": "Mo,We,Fr,Sa 14:00-22:00; Th 12:00-22:00, Su 14:00-21:00"
  },
  {
    "osm_id": 9983188027,
    "osm_type": "node",
    "name": "Hoeve Duin en Kruidberg",
    "amenity": "restaurant",
    "lat": 52.4305679,
    "lng": 4.6268374,
    "address": null,
    "city": null,
    "website": null,
    "phone": null,
    "cuisine": null,
    "outdoor_seating": null,
    "wheelchair": null,
    "opening_hours": null
  },
  {
    "osm_id": 10554897638,
    "osm_type": "node",
    "name": "Het Steigerhuys",
    "amenity": "restaurant",
    "lat": 52.4363844,
    "lng": 4.6546776,
    "address": "Ambachtsweg 3",
    "city": "Velserbroek",
    "website": "https://www.hetsteigerhuys.nl/",
    "phone": "+31 23 7853896",
    "cuisine": null,
    "outdoor_seating": null,
    "wheelchair": null,
    "opening_hours": "Tu-Th 11:00-17:00; Fr-Su 11:00-21:00"
  },
  {
    "osm_id": 10584123671,
    "osm_type": "node",
    "name": "McDonald's",
    "amenity": "fast_food",
    "lat": 52.4256994,
    "lng": 4.6467648,
    "address": "Vlietweg 16",
    "city": "Santpoort-Noord",
    "website": "https://mcdonaldsrestaurant.nl/santpoort-noord/restaurants/mcdonalds-santpoort-noord",
    "phone": "+31 23 538 5219",
    "cuisine": "burger",
    "outdoor_seating": null,
    "wheelchair": null,
    "opening_hours": "07:00-01:00; Fr,Sa 07:00-02:00 open \"Restaurant\" || 07:00-02:00 open \"McDrive\""
  },
  {
    "osm_id": 10947404430,
    "osm_type": "node",
    "name": "Café DenK",
    "amenity": "cafe",
    "lat": 52.43251,
    "lng": 4.6284385,
    "address": null,
    "city": null,
    "website": null,
    "phone": null,
    "cuisine": null,
    "outdoor_seating": null,
    "wheelchair": null,
    "opening_hours": null
  },
  {
    "osm_id": 10964815723,
    "osm_type": "node",
    "name": "Rustpunt Hoogovens Museum",
    "amenity": "cafe",
    "lat": 52.47259,
    "lng": 4.62379,
    "address": null,
    "city": null,
    "website": "https://www.hoogovensmuseum.nl",
    "phone": null,
    "cuisine": null,
    "outdoor_seating": "only",
    "wheelchair": null,
    "opening_hours": null
  },
  {
    "osm_id": 11602452601,
    "osm_type": "node",
    "name": "Restaurant Sneeblick",
    "amenity": "cafe",
    "lat": 52.4493452,
    "lng": 4.6787807,
    "address": "Heuvelweg 8",
    "city": "Velsen-Zuid",
    "website": "https://www.snowworld.com/amsterdam/nl/eten-drinken/restaurant-schneeblick-snowworld-amsterdam",
    "phone": null,
    "cuisine": "pastry",
    "outdoor_seating": null,
    "wheelchair": null,
    "opening_hours": null
  },
  {
    "osm_id": 11602452695,
    "osm_type": "node",
    "name": "Restaurant De Heuvel",
    "amenity": "restaurant",
    "lat": 52.449545,
    "lng": 4.6786006,
    "address": "Heuvelweg 6",
    "city": "Velsen-Zuid",
    "website": "https://www.snowworld.com/amsterdam/nl/eten-drinken/restaurant-de-heuvel-snowworld-amsterdam",
    "phone": null,
    "cuisine": "diner;french;mediterranean",
    "outdoor_seating": null,
    "wheelchair": null,
    "opening_hours": null
  },
  {
    "osm_id": 13296129441,
    "osm_type": "node",
    "name": "Augusta Brasserie",
    "amenity": "restaurant",
    "lat": 52.4615064,
    "lng": 4.5926307,
    "address": null,
    "city": null,
    "website": "https://augusta.nl/brasserie/",
    "phone": null,
    "cuisine": null,
    "outdoor_seating": null,
    "wheelchair": null,
    "opening_hours": null
  },
  {
    "osm_id": 268274493,
    "osm_type": "way",
    "name": "Herberg 1883",
    "amenity": "restaurant",
    "lat": 52.4315425,
    "lng": 4.7084294,
    "address": null,
    "city": null,
    "website": null,
    "phone": null,
    "cuisine": "regional",
    "outdoor_seating": null,
    "wheelchair": null,
    "opening_hours": null
  },
  {
    "osm_id": 272628130,
    "osm_type": "way",
    "name": "De Puntzak",
    "amenity": "cafe",
    "lat": 52.458837,
    "lng": 4.5966638,
    "address": null,
    "city": null,
    "website": null,
    "phone": null,
    "cuisine": null,
    "outdoor_seating": null,
    "wheelchair": null,
    "opening_hours": null
  },
  {
    "osm_id": 272667169,
    "osm_type": "way",
    "name": "Grand Café The Dutch Admirals",
    "amenity": "restaurant",
    "lat": 52.4572904,
    "lng": 4.5587431,
    "address": "Kennemerboulevard 510",
    "city": "IJmuiden",
    "website": "https://www.thedutchadmirals.nl/",
    "phone": "+31 255 560 307",
    "cuisine": "fish",
    "outdoor_seating": null,
    "wheelchair": null,
    "opening_hours": null
  },
  {
    "osm_id": 272672053,
    "osm_type": "way",
    "name": "Lunchroom Bart",
    "amenity": "restaurant",
    "lat": 52.4583528,
    "lng": 4.5919886,
    "address": null,
    "city": null,
    "website": "https://www.lunchroombart.nl/",
    "phone": null,
    "cuisine": null,
    "outdoor_seating": null,
    "wheelchair": null,
    "opening_hours": null
  },
  {
    "osm_id": 379973976,
    "osm_type": "way",
    "name": "Restaurant Beaufort",
    "amenity": "restaurant",
    "lat": 52.4572931,
    "lng": 4.5645137,
    "address": "Kennemerboulevard 250",
    "city": "IJmuiden",
    "website": "https://www.restaurantbeaufort.nl",
    "phone": null,
    "cuisine": "international",
    "outdoor_seating": null,
    "wheelchair": null,
    "opening_hours": null
  }
]