[
  {
    "osm_id": 471619053,
    "osm_type": "node",
    "name": "Theehuis Mon-Chouette",
    "amenity": "cafe",
    "lat": 52.1060097,
    "lng": 5.4355542,
    "address": "Leusbroekerweg 25-b",
    "city": "3831JZ",
    "website": "https://www.monchouette.nl/",
    "phone": "+31 33 433 74 09",
    "cuisine": null,
    "outdoor_seating": null,
    "wheelchair": null,
    "opening_hours": "Mar-Oct Mo-Su 10:00-18:00; Nov-Feb Mo, We-Su 11:00-17:00"
  },
  {
    "osm_id": 1404443060,
    "osm_type": "node",
    "name": "De Buurman",
    "amenity": "restaurant",
    "lat": 52.1290757,
    "lng": 5.4276384,
    "address": "'t Plein 1",
    "city": "Leusden",
    "website": "https://www.restaurantdebuurman.nl/",
    "phone": "+31 33 4321667",
    "cuisine": "international;grill",
    "outdoor_seating": null,
    "wheelchair": null,
    "opening_hours": "Tu-Sa 10:30-21:00"
  },
  {
    "osm_id": 1404512479,
    "osm_type": "node",
    "name": "Mazoki",
    "amenity": "restaurant",
    "lat": 52.13276,
    "lng": 5.4414595,
    "address": "Waarden 25b",
    "city": "Leusden",
    "website": "https://www.mazoki.nl/",
    "phone": "+31 33 433 2070",
    "cuisine": null,
    "outdoor_seating": "yes",
    "wheelchair": null,
    "opening_hours": "Th 17:00-22:00; Fr 15:00-22:00; Sa-Su 15:00-22:00"
  },
  {
    "osm_id": 1642974420,
    "osm_type": "node",
    "name": "Hello Again",
    "amenity": "restaurant",
    "lat": 52.1376846,
    "lng": 5.4263909,
    "address": "Zwarteweg 5",
    "city": "Leusden",
    "website": "https://restauranthelloagain.nl",
    "phone": "+31 33 494 7696",
    "cuisine": "diner;fondue;ice_cream",
    "outdoor_seating": "yes",
    "wheelchair": null,
    "opening_hours": "We-Su 17:00-23:00"
  },
  {
    "osm_id": 1729205395,
    "osm_type": "node",
    "name": "Silver River",
    "amenity": "restaurant",
    "lat": 52.135136,
    "lng": 5.4270542,
    "address": "Hamersveldseweg 16",
    "city": "Leusden",
    "website": "https://www.silver-river.nl",
    "phone": "+31 33 432 1433",
    "cuisine": "sushi;japanese;int;chinese",
    "outdoor_seating": null,
    "wheelchair": null,
    "opening_hours": "Mo 16:00-22:00; We-Fr 16:00-21:00; Sa 16:00-22:30; Su 16:00-22:00"
  },
  {
    "osm_id": 1787443444,
    "osm_type": "node",
    "name": "De Arkel",
    "amenity": "fast_food",
    "lat": 52.1381573,
    "lng": 5.4969157,
    "address": "Jan van Arkelweg 36",
    "city": "Achterveld",
    "website": "https://dearkel.nl/",
    "phone": "+31 342 45 1528",
    "cuisine": null,
    "outdoor_seating": null,
    "wheelchair": null,
    "opening_hours": "Te-We,Su 16:00-20:00; Th-Sa 12:00-20:00"
  },
  {
    "osm_id": 1814999435,
    "osm_type": "node",
    "name": "Kwalitaria",
    "amenity": "fast_food",
    "lat": 52.1181272,
    "lng": 5.4086911,
    "address": "Maximaplein 78",
    "city": "Leusden",
    "website": "https://www.kwalitaria.nl/vestiging/kwalitaria-leusden-zuid",
    "phone": "+31 33 202 3155",
    "cuisine": "friture",
    "outdoor_seating": null,
    "wheelchair": null,
    "opening_hours": "Mo-Su 16:00-20:00"
  },
  {
    "osm_id": 1851212396,
    "osm_type": "node",
    "name": "Maxima's",
    "amenity": "restaurant",
    "lat": 52.1186902,
    "lng": 5.4094411,
    "address": "Maximaplein 7",
    "city": "Leusden",
    "website": "https://www.maxima-leusden.nl/",
    "phone": "+31 6 30645561",
    "cuisine": "sandwich;indonesian",
    "outdoor_seating": "yes",
    "wheelchair": "yes",
    "opening_hours": null
  },
  {
    "osm_id": 1964639882,
    "osm_type": "node",
    "name": "Bella Venezia 2",
    "amenity": "restaurant",
    "lat": 52.1299718,
    "lng": 5.428563,
    "address": "Kromhoutplaats 1",
    "city": "Leusden",
    "website": "https://www.bellavenezia2.nl/",
    "phone": "+31 33 494 7059",
    "cuisine": "italian",
    "outdoor_seating": "no",
    "wheelchair": null,
    "opening_hours": "Mo-Su 16:00-21:00"
  },
  {
    "osm_id": 1964639920,
    "osm_type": "node",
    "name": "I Sushi Shop",
    "amenity": "restaurant",
    "lat": 52.1302432,
    "lng": 5.4285618,
    "address": "'t Erf 10",
    "city": "Leusden",
    "website": "https://www.isushishop.nl/",
    "phone": "+31 33 737 0315",
    "cuisine": "asian;sushi",
    "outdoor_seating": null,
    "wheelchair": null,
    "opening_hours": null
  },
  {
    "osm_id": 1964642416,
    "osm_type": "node",
    "name": "Cafetaria Döner Kebab",
    "amenity": "fast_food",
    "lat": 52.1290146,
    "lng": 5.4277765,
    "address": "'t Plein 3",
    "city": "Leusden",
    "website": "https://cafetaria-doner-leusden.nl",
    "phone": "+31 33 433 7000",
    "cuisine": "kebab;burger;sandwich;chicken;turkish;shawarma",
    "outdoor_seating": "yes",
    "wheelchair": null,
    "opening_hours": "Mo-Sa 12:00-21:00; Su 13:30-21:00"
  },
  {
    "osm_id": 1964642455,
    "osm_type": "node",
    "name": "Kippie",
    "amenity": "fast_food",
    "lat": 52.1286577,
    "lng": 5.4276408,
    "address": "'t Plein 31",
    "city": "Leusden",
    "website": "https://www.kippie.nl/winkels/leusden",
    "phone": "+31 33 737 0192",
    "cuisine": "chicken",
    "outdoor_seating": null,
    "wheelchair": null,
    "opening_hours": "Mo-Th 09:00-18:30; Fr 09:00-21:00; Sa 09:00-18:00"
  },
  {
    "osm_id": 1964643284,
    "osm_type": "node",
    "name": "Delizia Dolce",
    "amenity": "ice_cream",
    "lat": 52.1302853,
    "lng": 5.4281924,
    "address": "'t Erf 4",
    "city": "Leusden",
    "website": "https://www.instagram.com/Delizia_dolce_nl/",
    "phone": null,
    "cuisine": null,
    "outdoor_seating": "yes",
    "wheelchair": null,
    "opening_hours": null
  },
  {
    "osm_id": 1964644587,
    "osm_type": "node",
    "name": "New York Pizza",
    "amenity": "fast_food",
    "lat": 52.131288,
    "lng": 5.4264932,
    "address": "Hamersveldseweg 56a",
    "city": "Leusden",
    "website": "https://www.newyorkpizza.nl/vestigingen/order-pizzaleusden-hamersveldseweg",
    "phone": "+31 33 303 4386",
    "cuisine": "pizza",
    "outdoor_seating": null,
    "wheelchair": null,
    "opening_hours": "Mo-Fr 16:00-22:00; Sa 14:00-22:00; Su 16:00-22:00"
  },
  {
    "osm_id": 1964647645,
    "osm_type": "node",
    "name": "Bij Vallery",
    "amenity": "restaurant",
    "lat": 52.1297438,
    "lng": 5.4283667,
    "address": "Kooikersgracht 9",
    "city": "Leusden",
    "website": "https://www.bijvallery.nl",
    "phone": "+31 33 7854 102",
    "cuisine": null,
    "outdoor_seating": "yes",
    "wheelchair": null,
    "opening_hours": "Th-Mo 11:00-23:00"
  },
  {
    "osm_id": 1964739511,
    "osm_type": "node",
    "name": "Waroeng Amanah",
    "amenity": "restaurant",
    "lat": 52.1375226,
    "lng": 5.4281663,
    "address": "De Biezenkamp 17",
    "city": "Leusden",
    "website": "https://leusdennatuurlijk.nl/index.php/portfolio-item/waroeng-amanah/",
    "phone": "+31 33 4337118",
    "cuisine": "indonesian",
    "outdoor_seating": "no",
    "wheelchair": null,
    "opening_hours": "Tu-Th,Su 14:30-19:30; Fr-Sa 15:00-20:00"
  },
  {
    "osm_id": 1964740942,
    "osm_type": "node",
    "name": "Mykonos",
    "amenity": "restaurant",
    "lat": 52.1344942,
    "lng": 5.4271418,
    "address": "Hamersveldseweg 26",
    "city": "Leusden",
    "website": "https://mykonos-leusden.nl/",
    "phone": "+31 33 432 2275",
    "cuisine": "greek",
    "outdoor_seating": "yes",
    "wheelchair": null,
    "opening_hours": "Mo 16:30-22:00; We-Su 16:30-22:00"
  },
  {
    "osm_id": 1964740970,
    "osm_type": "node",
    "name": "Fyn Ys",
    "amenity": "ice_cream",
    "lat": 52.1373266,
    "lng": 5.428368,
    "address": "De Biezenkamp 27",
    "city": "Leusden",
    "website": "https://fyn-ys.nl/",
    "phone": "+31 6 20773435",
    "cuisine": null,
    "outdoor_seating": "yes",
    "wheelchair": "yes",
    "opening_hours": "Mo-Su 12:00-20:00"
  },
  {
    "osm_id": 1964741305,
    "osm_type": "node",
    "name": "Plan B",
    "amenity": "restaurant",
    "lat": 52.1368028,
    "lng": 5.4278176,
    "address": "De Biezenkamp 4D",
    "city": "Leusden",
    "website": "https://www.eetcafeplanb.nl",
    "phone": "+31 33 495 1498",
    "cuisine": "international",
    "outdoor_seating": "yes",
    "wheelchair": null,
    "opening_hours": "Mo 17:00-22:00; We-Sa 17:00-22:00; Su 17:00-21:00"
  },
  {
    "osm_id": 1964741328,
    "osm_type": "node",
    "name": "Dragon City",
    "amenity": "restaurant",
    "lat": 52.1367152,
    "lng": 5.4277978,
    "address": "De Biezenkamp 4F",
    "city": "Leusden",
    "website": "http://www.dragoncityleusden.nl/",
    "phone": "+31 33 495 0466",
    "cuisine": "chinese",
    "outdoor_seating": "yes",
    "wheelchair": null,
    "opening_hours": "Tu-Sa 16:00-21:30; Su 12:00-21:30"
  },
  {
    "osm_id": 1967331222,
    "osm_type": "node",
    "name": "Snackbar de Swartesteegh",
    "amenity": "fast_food",
    "lat": 52.1381285,
    "lng": 5.4267827,
    "address": "Zwarteweg 6",
    "city": "Leusden",
    "website": "https://www.snackbar-swartesteegh.nl",
    "phone": "+31 33 494 5916",
    "cuisine": "friture;ice_cream",
    "outdoor_seating": "yes",
    "wheelchair": null,
    "opening_hours": "Tu-Th,Sa-Su 12:00-21:30; Fr 11:00-21:55"
  },
  {
    "osm_id": 2374568671,
    "osm_type": "node",
    "name": "Ninety",
    "amenity": "restaurant",
    "lat": 52.1221314,
    "lng": 5.4000536,
    "address": "Treekerweg 28",
    "city": "Leusden",
    "website": "https://www.ninetyleusden.nl/",
    "phone": "+31 53 700 97 75",
    "cuisine": "international;sushi;french;burger",
    "outdoor_seating": null,
    "wheelchair": null,
    "opening_hours": "Tu-Sa 17:00-23:00; Su 16:00-23:00"
  },
  {
    "osm_id": 2705722315,
    "osm_type": "node",
    "name": "De Hessenkar",
    "amenity": "restaurant",
    "lat": 52.1365567,
    "lng": 5.4923177,
    "address": "Hessenweg 172",
    "city": "Achterveld",
    "website": "https://hessenkar.nl",
    "phone": "+31 342 45 1318",
    "cuisine": "grill",
    "outdoor_seating": null,
    "wheelchair": null,
    "opening_hours": "We 11:30-22:30; Th 11:30-00:00; Fr 11:30-01:30; Sa 11:30-02:30; Su 11:30-23:00"
  },
  {
    "osm_id": 2705723081,
    "osm_type": "node",
    "name": "Nog Eentje",
    "amenity": "restaurant",
    "lat": 52.1343408,
    "lng": 5.4989723,
    "address": "Hessenweg 337",
    "city": "Achterveld",
    "website": "https://www.nogeentje.nl/",
    "phone": "+31 342 45 1327",
    "cuisine": null,
    "outdoor_seating": null,
    "wheelchair": null,
    "opening_hours": "Th-Su 17:00-20:30"
  },
  {
    "osm_id": 2706624713,
    "osm_type": "node",
    "name": "'t Lanshuys",
    "amenity": "restaurant",
    "lat": 52.1166654,
    "lng": 5.362763,
    "address": "Doornseweg 18",
    "city": "Leusden",
    "website": "https://www.lanshuys.nl",
    "phone": "+31 33 285 4367",
    "cuisine": null,
    "outdoor_seating": "yes",
    "wheelchair": null,
    "opening_hours": "Tu-Su 11:00-22:00"
  },
  {
    "osm_id": 2706624770,
    "osm_type": "node",
    "name": "De Gezelligheid",
    "amenity": "restaurant",
    "lat": 52.1137525,
    "lng": 5.3615231,
    "address": "Doornseweg 29",
    "city": "Leusden",
    "website": "https://www.degezelligheid.com/",
    "phone": "+31 33 461 8659",
    "cuisine": null,
    "outdoor_seating": "yes",
    "wheelchair": null,
    "opening_hours": "We-Su 12:00-00:00"
  },
  {
    "osm_id": 2707907793,
    "osm_type": "node",
    "name": "Zuiver",
    "amenity": "restaurant",
    "lat": 52.1311925,
    "lng": 5.3733613,
    "address": "Vlooswijkseweg 1",
    "city": "Leusden",
    "website": "https://www.restaurantzuiver.nl/",
    "phone": "+31 88 984 8300",
    "cuisine": null,
    "outdoor_seating": null,
    "wheelchair": null,
    "opening_hours": "Mo-Fr 09:00-22:00; Sa-Su 10:00-22:00"
  },
  {
    "osm_id": 2708251335,
    "osm_type": "node",
    "name": "Theetuin Heyligenberg",
    "amenity": "cafe",
    "lat": 52.1366591,
    "lng": 5.4088427,
    "address": "Heiligenbergerweg 1a",
    "city": "Leusden",
    "website": "http://www.theetuinheyligenberg.nl/",
    "phone": "+31 33 4753001",
    "cuisine": null,
    "outdoor_seating": "yes",
    "wheelchair": null,
    "opening_hours": "We-Su 12:00-18:00"
  },
  {
    "osm_id": 2708348185,
    "osm_type": "node",
    "name": "Chardonnay",
    "amenity": "restaurant",
    "lat": 52.1245063,
    "lng": 5.4826608,
    "address": "Postweg 1",
    "city": "Leusden",
    "website": "https://restaurantchardonnay.nl/",
    "phone": "+31 33 303 7335",
    "cuisine": "french",
    "outdoor_seating": null,
    "wheelchair": null,
    "opening_hours": "Mo-Th 17:30-22:30; Fr-Su 17:30-23:00"
  },
  {
    "osm_id": 2708430145,
    "osm_type": "node",
    "name": "Pluktuin en theehuis",
    "amenity": "cafe",
    "lat": 52.1540481,
    "lng": 5.4524834,
    "address": "Stoutenburgerlaan 6",
    "city": "Stoutenburg",
    "website": "https://pluktuinstoutenburg.nl",
    "phone": "+31 33 253 5615",
    "cuisine": null,
    "outdoor_seating": null,
    "wheelchair": null,
    "opening_hours": "May-Sep Th-Sa 10:30-17:00"
  },
  {
    "osm_id": 2926446186,
    "osm_type": "node",
    "name": "Schenkerij Eemelaar",
    "amenity": "cafe",
    "lat": 52.1502872,
    "lng": 5.472502,
    "address": null,
    "city": null,
    "website": null,
    "phone": null,
    "cuisine": null,
    "outdoor_seating": null,
    "wheelchair": null,
    "opening_hours": null
  },
  {
    "osm_id": 3199922805,
    "osm_type": "node",
    "name": "BB Kitchen",
    "amenity": "fast_food",
    "lat": 52.1288757,
    "lng": 5.4268522,
    "address": "De Smidse 20",
    "city": "Leusden",
    "website": "https://www.bigbreadleusden.nl/",
    "phone": "+31 33 820 0290",
    "cuisine": "friture;ice_cream",
    "outdoor_seating": "yes",
    "wheelchair": null,
    "opening_hours": "Mo 15:00-21:00; Tu-Sa 12:00-21:00; Su 13:00-22:00"
  },
  {
    "osm_id": 3993388299,
    "osm_type": "node",
    "name": "Domino's",
    "amenity": "fast_food",
    "lat": 52.137674,
    "lng": 5.4280726,
    "address": "De Biezenkamp 11-13",
    "city": "Leusden",
    "website": "https://www.dominos.nl/winkel/nl-leusden-30818",
    "phone": "+31 33 210 0800",
    "cuisine": "pizza",
    "outdoor_seating": "no",
    "wheelchair": null,
    "opening_hours": "Mo-Th 16:00-22:00; Fr-Su 11:30-22:00"
  },
  {
    "osm_id": 3993390083,
    "osm_type": "node",
    "name": "Amici",
    "amenity": "restaurant",
    "lat": 52.1372299,
    "lng": 5.4274254,
    "address": "De Biezenkamp 3A",
    "city": "Leusden",
    "website": "https://www.amicirestaurant.nl/",
    "phone": "+31 33 495 1352",
    "cuisine": "italian",
    "outdoor_seating": "yes",
    "wheelchair": null,
    "opening_hours": "Tu-Su 16:00-22:00"
  },
  {
    "osm_id": 3993390086,
    "osm_type": "node",
    "name": "Jobs Koffiekamer",
    "amenity": "cafe",
    "lat": 52.1372458,
    "lng": 5.4278539,
    "address": "De Biezenkamp 3c",
    "city": "Leusden",
    "website": "https://jobskoffiekamer.nl/",
    "phone": "+31 33 785 4527",
    "cuisine": "coffee_shop;sandwich;regional;sushi;poke",
    "outdoor_seating": "yes",
    "wheelchair": "yes",
    "opening_hours": "Mo-Th 08:30-17:00; Fr 08:30-21:00; Sa 08:30-17:00"
  },
  {
    "osm_id": 4520573490,
    "osm_type": "node",
    "name": "De berken",
    "amenity": "fast_food",
    "lat": 52.1343053,
    "lng": 5.501229,
    "address": "Hessenweg 228",
    "city": "Achterveld",
    "website": "http://www.deberkenachterveld.nl/",
    "phone": "+31 342 451 326",
    "cuisine": null,
    "outdoor_seating": null,
    "wheelchair": null,
    "opening_hours": null
  },
  {
    "osm_id": 4929281871,
    "osm_type": "node",
    "name": "Jacco's",
    "amenity": "fast_food",
    "lat": 52.1321509,
    "lng": 5.4408916,
    "address": "Lepelaar 7",
    "city": "Leusden",
    "website": "https://jaccosleusden.nl",
    "phone": "+31 33 494 12 44",
    "cuisine": "fast_food;ice_cream",
    "outdoor_seating": "yes",
    "wheelchair": "yes",
    "opening_hours": "Mo,We-Th 11:00-21:30; Fr-Sa 11:00-22:00; Su 11:00-21:00"
  },
  {
    "osm_id": 4930296956,
    "osm_type": "node",
    "name": "Hoeve Ruitenbeek",
    "amenity": "ice_cream",
    "lat": 52.1304389,
    "lng": 5.4033763,
    "address": "Arnhemseweg 9",
    "city": "Leusden",
    "website": "https://www.hoeveruitenbeek.nl/",
    "phone": "+31 33 494 0498",
    "cuisine": null,
    "outdoor_seating": "yes",
    "wheelchair": null,
    "opening_hours": "Mo-Sa 09:00-17:00"
  },
  {
    "osm_id": 4930601446,
    "osm_type": "node",
    "name": "BuitenHuis",
    "amenity": "restaurant",
    "lat": 52.1325592,
    "lng": 5.4272278,
    "address": "Hamersveldseweg 55",
    "city": "Leusden",
    "website": "https://restaurantbuitenhuis.nl/",
    "phone": "+31 33 303 0077",
    "cuisine": "french",
    "outdoor_seating": "yes",
    "wheelchair": null,
    "opening_hours": "We-Th 11:00-22:00; Fr-Sa 11:00-24:00; Su 11:00-22:00"
  },
  {
    "osm_id": 4930601465,
    "osm_type": "node",
    "name": "Kraton Rosbeijer",
    "amenity": "restaurant",
    "lat": 52.1323811,
    "lng": 5.4271773,
    "address": "Hamersveldseweg 57",
    "city": "Leusden",
    "website": "https://kratonrosbeijer.nl",
    "phone": "+31 33 887 1111",
    "cuisine": "indonesian",
    "outdoor_seating": "yes",
    "wheelchair": null,
    "opening_hours": "We-Su 16:00-23:00"
  },
  {
    "osm_id": 5232410042,
    "osm_type": "node",
    "name": "Bras 73",
    "amenity": "restaurant",
    "lat": 52.1308181,
    "lng": 5.4267901,
    "address": "Hamersveldseweg 73",
    "city": "Leusden",
    "website": "https://bras73.nl",
    "phone": "+31 33 3036011",
    "cuisine": null,
    "outdoor_seating": "yes",
    "wheelchair": null,
    "opening_hours": "Mo-Su 11:00-22:00"
  },
  {
    "osm_id": 5448371478,
    "osm_type": "node",
    "name": "Dame Bl'ans",
    "amenity": "ice_cream",
    "lat": 52.1346941,
    "lng": 5.4960097,
    "address": "Hessenweg 206b",
    "city": "Achterveld",
    "website": null,
    "phone": "+31 6 1024 1670",
    "cuisine": null,
    "outdoor_seating": "yes",
    "wheelchair": null,
    "opening_hours": "Apr-Sep Th-Su 14:00-20:00"
  },
  {
    "osm_id": 6886825642,
    "osm_type": "node",
    "name": "'t Erf",
    "amenity": "cafe",
    "lat": 52.1305081,
    "lng": 5.4285275,
    "address": "'t Erf 14",
    "city": "Leusden",
    "website": "https://lunchroomleusden.nl/",
    "phone": "+31 33 785 3523",
    "cuisine": "lunch",
    "outdoor_seating": null,
    "wheelchair": null,
    "opening_hours": "Tu-Sa 10:00-17:00"
  },
  {
    "osm_id": 8483245332,
    "osm_type": "node",
    "name": "Theehuis Hoeve Groot Zandbrink",
    "amenity": "cafe",
    "lat": 52.1247678,
    "lng": 5.4794177,
    "address": null,
    "city": null,
    "website": null,
    "phone": null,
    "cuisine": null,
    "outdoor_seating": null,
    "wheelchair": null,
    "opening_hours": null
  },
  {
    "osm_id": 9006688744,
    "osm_type": "node",
    "name": "De Roskam",
    "amenity": "restaurant",
    "lat": 52.1344764,
    "lng": 5.4965919,
    "address": null,
    "city": null,
    "website": "https://deroskam.nl/",
    "phone": "+31 342 45 1223",
    "cuisine": null,
    "outdoor_seating": null,
    "wheelchair": null,
    "opening_hours": "Mo-Th,Su 11:30-20:30; Fr,Sa 11:30-21:00"
  },
  {
    "osm_id": 9062168633,
    "osm_type": "node",
    "name": "Pannenkoe",
    "amenity": "restaurant",
    "lat": 52.1324931,
    "lng": 5.4414521,
    "address": "Waarden 25c",
    "city": "Leusden",
    "website": "https://www.pannenkoe.nl/leusden/",
    "phone": "+31 33 494 4434",
    "cuisine": "pancake",
    "outdoor_seating": "yes",
    "wheelchair": null,
    "opening_hours": "Tu-Su 11:00-20:30"
  },
  {
    "osm_id": 11602360160,
    "osm_type": "node",
    "name": "Shoarma Mo'oi",
    "amenity": "restaurant",
    "lat": 52.1372767,
    "lng": 5.4287285,
    "address": "De Biezenkamp 29b",
    "city": "Leusden",
    "website": "https://www.shoarma-mooi-leusden.nl",
    "phone": "+31 6 35660901",
    "cuisine": "shawarma",
    "outdoor_seating": null,
    "wheelchair": null,
    "opening_hours": "Tu-Fr 16:00-21:30; Sa 15:00-21:30; Su 15:00-20:45"
  },
  {
    "osm_id": 13021483932,
    "osm_type": "node",
    "name": "George dining",
    "amenity": "restaurant",
    "lat": 52.1293118,
    "lng": 5.428887,
    "address": null,
    "city": null,
    "website": "https://dekorf.nl/leusden/george-dining/",
    "phone": "+31 33 494 69 13",
    "cuisine": null,
    "outdoor_seating": null,
    "wheelchair": null,
    "opening_hours": null
  },
  {
    "osm_id": 13021483933,
    "osm_type": "node",
    "name": "Melitta saloon",
    "amenity": "restaurant",
    "lat": 52.1293663,
    "lng": 5.4289,
    "address": null,
    "city": null,
    "website": "https://dekorf.nl/leusden/melitta-saloon/",
    "phone": "+31 33 494 67 31",
    "cuisine": null,
    "outdoor_seating": null,
    "wheelchair": null,
    "opening_hours": null
  }
]