[
  {
    "osm_id": 442579648,
    "osm_type": "node",
    "name": "Taverna De Griek",
    "amenity": "restaurant",
    "lat": 52.2215403,
    "lng": 5.1685425,
    "address": null,
    "city": null,
    "website": "https://www.tavernadegriek.nl/",
    "phone": "+31 35 621 6274",
    "cuisine": "greek",
    "outdoor_seating": null,
    "wheelchair": "no",
    "opening_hours": "Mo, We-Su 17:00-22:00"
  },
  {
    "osm_id": 442579649,
    "osm_type": "node",
    "name": "Las Tapas",
    "amenity": "restaurant",
    "lat": 52.2214011,
    "lng": 5.1684242,
    "address": null,
    "city": null,
    "website": null,
    "phone": null,
    "cuisine": "spanish",
    "outdoor_seating": null,
    "wheelchair": "limited",
    "opening_hours": null
  },
  {
    "osm_id": 442579650,
    "osm_type": "node",
    "name": "Chiang Mai",
    "amenity": "restaurant",
    "lat": 52.2212987,
    "lng": 5.1683535,
    "address": null,
    "city": null,
    "website": null,
    "phone": null,
    "cuisine": "thai",
    "outdoor_seating": null,
    "wheelchair": "no",
    "opening_hours": null
  },
  {
    "osm_id": 442582304,
    "osm_type": "node",
    "name": "De Mangerie",
    "amenity": "restaurant",
    "lat": 52.2138934,
    "lng": 5.1537026,
    "address": null,
    "city": null,
    "website": null,
    "phone": null,
    "cuisine": "chinese",
    "outdoor_seating": null,
    "wheelchair": null,
    "opening_hours": null
  },
  {
    "osm_id": 602218555,
    "osm_type": "node",
    "name": "Ai Uchi",
    "amenity": "restaurant",
    "lat": 52.2220443,
    "lng": 5.1772554,
    "address": null,
    "city": null,
    "website": null,
    "phone": null,
    "cuisine": "japanese",
    "outdoor_seating": null,
    "wheelchair": null,
    "opening_hours": null
  },
  {
    "osm_id": 602218556,
    "osm_type": "node",
    "name": "Kings IJscafe",
    "amenity": "fast_food",
    "lat": 52.2218509,
    "lng": 5.1778175,
    "address": null,
    "city": null,
    "website": null,
    "phone": null,
    "cuisine": "ice_cream",
    "outdoor_seating": null,
    "wheelchair": null,
    "opening_hours": null
  },
  {
    "osm_id": 602218559,
    "osm_type": "node",
    "name": "Kwalitaria",
    "amenity": "fast_food",
    "lat": 52.232451,
    "lng": 5.1913004,
    "address": null,
    "city": null,
    "website": null,
    "phone": null,
    "cuisine": "friture",
    "outdoor_seating": null,
    "wheelchair": "yes",
    "opening_hours": null
  },
  {
    "osm_id": 918300135,
    "osm_type": "node",
    "name": "Casa di Georgio",
    "amenity": "restaurant",
    "lat": 52.2361128,
    "lng": 5.1945243,
    "address": "Larenseweg 148",
    "city": "Hilversum",
    "website": "https://www.casadigeorgio.com",
    "phone": null,
    "cuisine": "italian",
    "outdoor_seating": null,
    "wheelchair": null,
    "opening_hours": "Tu-Su 17:00-22:00"
  },
  {
    "osm_id": 1428032042,
    "osm_type": "node",
    "name": "Old Tbilisi",
    "amenity": "restaurant",
    "lat": 52.225182,
    "lng": 5.1776474,
    "address": "Groest 33",
    "city": "Hilversum",
    "website": null,
    "phone": null,
    "cuisine": null,
    "outdoor_seating": null,
    "wheelchair": null,
    "opening_hours": null
  },
  {
    "osm_id": 1927361622,
    "osm_type": "node",
    "name": "Proeverij De Open Keuken",
    "amenity": "restaurant",
    "lat": 52.2226508,
    "lng": 5.1745042,
    "address": "Laanstraat 31",
    "city": "Hilversum",
    "website": "https://www.deopenkeuken.nl",
    "phone": "+31 35 623 0777",
    "cuisine": "international",
    "outdoor_seating": null,
    "wheelchair": null,
    "opening_hours": "Mo-Su 16:00-23:00"
  },
  {
    "osm_id": 2649556770,
    "osm_type": "node",
    "name": "Marmarita",
    "amenity": "restaurant",
    "lat": 52.2254661,
    "lng": 5.1781731,
    "address": null,
    "city": null,
    "website": null,
    "phone": null,
    "cuisine": null,
    "outdoor_seating": null,
    "wheelchair": null,
    "opening_hours": null
  },
  {
    "osm_id": 2649556771,
    "osm_type": "node",
    "name": "Bagels & Beans",
    "amenity": "cafe",
    "lat": 52.2254901,
    "lng": 5.1769516,
    "address": null,
    "city": null,
    "website": null,
    "phone": null,
    "cuisine": "coffee_shop",
    "outdoor_seating": null,
    "wheelchair": "no",
    "opening_hours": null
  },
  {
    "osm_id": 2649556773,
    "osm_type": "node",
    "name": "JJ's Lunch & Diner Hilversum",
    "amenity": "restaurant",
    "lat": 52.2263261,
    "lng": 5.1773347,
    "address": null,
    "city": null,
    "website": null,
    "phone": null,
    "cuisine": null,
    "outdoor_seating": null,
    "wheelchair": null,
    "opening_hours": null
  },
  {
    "osm_id": 2649556774,
    "osm_type": "node",
    "name": "De Instuif",
    "amenity": "fast_food",
    "lat": 52.226656,
    "lng": 5.1780946,
    "address": null,
    "city": null,
    "website": null,
    "phone": null,
    "cuisine": null,
    "outdoor_seating": null,
    "wheelchair": null,
    "opening_hours": null
  },
  {
    "osm_id": 2649556775,
    "osm_type": "node",
    "name": "Wok To Go",
    "amenity": "fast_food",
    "lat": 52.2261794,
    "lng": 5.1777653,
    "address": null,
    "city": null,
    "website": null,
    "phone": null,
    "cuisine": "asian",
    "outdoor_seating": null,
    "wheelchair": null,
    "opening_hours": null
  },
  {
    "osm_id": 2649556778,
    "osm_type": "node",
    "name": "Garuda Mas",
    "amenity": "restaurant",
    "lat": 52.2268643,
    "lng": 5.1779987,
    "address": null,
    "city": null,
    "website": null,
    "phone": null,
    "cuisine": "asian",
    "outdoor_seating": null,
    "wheelchair": null,
    "opening_hours": null
  },
  {
    "osm_id": 2649556780,
    "osm_type": "node",
    "name": "McDonald's",
    "amenity": "fast_food",
    "lat": 52.2256167,
    "lng": 5.1765406,
    "address": "Kerkstraat 16",
    "city": "Hilversum",
    "website": "https://mcdonaldsrestaurant.nl/hilversum/restaurants/mcdonalds-hilversum",
    "phone": "+31 35 623 2724",
    "cuisine": "burger",
    "outdoor_seating": null,
    "wheelchair": "limited",
    "opening_hours": "Mo-Th 09:00-24:00; Fr,Sa 09:00-02:00; Su 12:00-24:00"
  },
  {
    "osm_id": 2649556794,
    "osm_type": "node",
    "name": "Subway",
    "amenity": "fast_food",
    "lat": 52.2260256,
    "lng": 5.177804,
    "address": "Groest 17B",
    "city": "Hilversum",
    "website": null,
    "phone": null,
    "cuisine": "sandwich",
    "outdoor_seating": "yes",
    "wheelchair": "yes",
    "opening_hours": null
  },
  {
    "osm_id": 2649556801,
    "osm_type": "node",
    "name": "Kings friet en ijs centrum",
    "amenity": "fast_food",
    "lat": 52.2266337,
    "lng": 5.1778204,
    "address": null,
    "city": null,
    "website": null,
    "phone": null,
    "cuisine": null,
    "outdoor_seating": null,
    "wheelchair": null,
    "opening_hours": null
  },
  {
    "osm_id": 2653648491,
    "osm_type": "node",
    "name": "Argentina",
    "amenity": "restaurant",
    "lat": 52.2237425,
    "lng": 5.1725703,
    "address": "Langestraat 130",
    "city": null,
    "website": "https://www.argentina-hilversum.nl",
    "phone": "+31 35 623 7204",
    "cuisine": "argentinian",
    "outdoor_seating": null,
    "wheelchair": "no",
    "opening_hours": "17:00-22:00"
  },
  {
    "osm_id": 2653648492,
    "osm_type": "node",
    "name": "Ninh Binh Hilversum",
    "amenity": "restaurant",
    "lat": 52.2250895,
    "lng": 5.1776428,
    "address": null,
    "city": null,
    "website": null,
    "phone": null,
    "cuisine": "vietnamese",
    "outdoor_seating": null,
    "wheelchair": null,
    "opening_hours": null
  },
  {
    "osm_id": 2653648494,
    "osm_type": "node",
    "name": "Brasserie Monsees",
    "amenity": "restaurant",
    "lat": 52.2249655,
    "lng": 5.1783842,
    "address": null,
    "city": null,
    "website": null,
    "phone": null,
    "cuisine": null,
    "outdoor_seating": null,
    "wheelchair": null,
    "opening_hours": null
  },
  {
    "osm_id": 2653648496,
    "osm_type": "node",
    "name": "De Frietboetiek",
    "amenity": "fast_food",
    "lat": 52.2266765,
    "lng": 5.1771614,
    "address": null,
    "city": null,
    "website": null,
    "phone": null,
    "cuisine": null,
    "outdoor_seating": null,
    "wheelchair": "yes",
    "opening_hours": null
  },
  {
    "osm_id": 2653648498,
    "osm_type": "node",
    "name": "Brasserie Monsees",
    "amenity": "restaurant",
    "lat": 52.2249712,
    "lng": 5.1785279,
    "address": null,
    "city": null,
    "website": null,
    "phone": null,
    "cuisine": null,
    "outdoor_seating": null,
    "wheelchair": null,
    "opening_hours": null
  },
  {
    "osm_id": 2653648500,
    "osm_type": "node",
    "name": "Domino's",
    "amenity": "fast_food",
    "lat": 52.2221888,
    "lng": 5.1690012,
    "address": null,
    "city": null,
    "website": null,
    "phone": null,
    "cuisine": "pizza",
    "outdoor_seating": null,
    "wheelchair": "limited",
    "opening_hours": null
  },
  {
    "osm_id": 2653648508,
    "osm_type": "node",
    "name": "Lorenza",
    "amenity": "restaurant",
    "lat": 52.2238648,
    "lng": 5.1724537,
    "address": "Langestraat 134",
    "city": null,
    "website": "https://www.restaurant-lorenza.nl/informatie.php",
    "phone": "+31 35 623 6217",
    "cuisine": "italian",
    "outdoor_seating": "no",
    "wheelchair": "yes",
    "opening_hours": "13:30-21:00"
  },
  {
    "osm_id": 2653648515,
    "osm_type": "node",
    "name": "Puur Smaeck",
    "amenity": "restaurant",
    "lat": 52.2250681,
    "lng": 5.1785367,
    "address": null,
    "city": null,
    "website": null,
    "phone": null,
    "cuisine": null,
    "outdoor_seating": null,
    "wheelchair": null,
    "opening_hours": null
  },
  {
    "osm_id": 2653648517,
    "osm_type": "node",
    "name": "Restaurant Su",
    "amenity": "restaurant",
    "lat": 52.2268785,
    "lng": 5.1781316,
    "address": null,
    "city": null,
    "website": "https://www.restaurantsu.nl/",
    "phone": null,
    "cuisine": "asian",
    "outdoor_seating": null,
    "wheelchair": null,
    "opening_hours": null
  },
  {
    "osm_id": 2653648518,
    "osm_type": "node",
    "name": "Roeng Reang",
    "amenity": "restaurant",
    "lat": 52.2232933,
    "lng": 5.1725757,
    "address": "Langestraat 99",
    "city": null,
    "website": "https://www.roengreanghilversum.nl/",
    "phone": null,
    "cuisine": "thai",
    "outdoor_seating": null,
    "wheelchair": "no",
    "opening_hours": "Mo,We off; Tu,Th-Su 16:15-20:30"
  },
  {
    "osm_id": 2653648519,
    "osm_type": "node",
    "name": "Indian Barbecue",
    "amenity": "restaurant",
    "lat": 52.2250355,
    "lng": 5.1776539,
    "address": null,
    "city": null,
    "website": null,
    "phone": null,
    "cuisine": "indian",
    "outdoor_seating": null,
    "wheelchair": null,
    "opening_hours": null
  },
  {
    "osm_id": 2653648520,
    "osm_type": "node",
    "name": "Surya",
    "amenity": "restaurant",
    "lat": 52.2235963,
    "lng": 5.1727035,
    "address": "Langestraat 126",
    "city": "Hilversum",
    "website": "https://suryarestaurant.nl/nl/indiaas-restaurant-hilversum/",
    "phone": "+31 35 631 9420",
    "cuisine": "indian",
    "outdoor_seating": null,
    "wheelchair": "yes",
    "opening_hours": "Mo off; Tu-Su 17:00-24:00"
  },
  {
    "osm_id": 2653648521,
    "osm_type": "node",
    "name": "Tokyo",
    "amenity": "restaurant",
    "lat": 52.2229966,
    "lng": 5.1701519,
    "address": null,
    "city": null,
    "website": null,
    "phone": null,
    "cuisine": null,
    "outdoor_seating": null,
    "wheelchair": "no",
    "opening_hours": null
  },
  {
    "osm_id": 2653648524,
    "osm_type": "node",
    "name": "Warung Adinda",
    "amenity": "restaurant",
    "lat": 52.2230798,
    "lng": 5.1727898,
    "address": "Langestraat 85",
    "city": "Hilversum",
    "website": "https://www.warungadinda.nl/",
    "phone": "+31 35 6242960",
    "cuisine": "indonesian",
    "outdoor_seating": null,
    "wheelchair": "yes",
    "opening_hours": null
  },
  {
    "osm_id": 2877849955,
    "osm_type": "node",
    "name": "'t Bospandje",
    "amenity": "restaurant",
    "lat": 52.2483881,
    "lng": 5.1609571,
    "address": "Spanderslaan 1",
    "city": "Hilversum",
    "website": "https://bospandje.nl/",
    "phone": "+31 35 6245695",
    "cuisine": "pancake",
    "outdoor_seating": "yes",
    "wheelchair": null,
    "opening_hours": "Tu-Su 10:30-20:00"
  },
  {
    "osm_id": 2877919689,
    "osm_type": "node",
    "name": "'t Pandje",
    "amenity": "restaurant",
    "lat": 52.2440018,
    "lng": 5.168799,
    "address": "Mies Bouwmanboulevard 131",
    "city": "Hilversum",
    "website": "https://eetcafepandje.nl/",
    "phone": null,
    "cuisine": null,
    "outdoor_seating": null,
    "wheelchair": null,
    "opening_hours": null
  },
  {
    "osm_id": 2877924726,
    "osm_type": "node",
    "name": "David's Bar & Restaurant",
    "amenity": "restaurant",
    "lat": 52.2382643,
    "lng": 5.17108,
    "address": "Joop van den Endeplein 3",
    "city": "Hilversum",
    "website": "https://davidshilversum.nl/",
    "phone": "+31 35 205 7432",
    "cuisine": null,
    "outdoor_seating": null,
    "wheelchair": null,
    "opening_hours": null
  },
  {
    "osm_id": 2877925106,
    "osm_type": "node",
    "name": "Spandershoeve",
    "amenity": "restaurant",
    "lat": 52.2391238,
    "lng": 5.1612742,
    "address": "Bussumergrintweg 46",
    "city": "Hilversum",
    "website": "https://www.spandershoeve.nl",
    "phone": null,
    "cuisine": "indonesian",
    "outdoor_seating": null,
    "wheelchair": null,
    "opening_hours": null
  },
  {
    "osm_id": 2877925187,
    "osm_type": "node",
    "name": "The Deli",
    "amenity": "cafe",
    "lat": 52.2376043,
    "lng": 5.1715855,
    "address": "André van Duinboulevard 7",
    "city": "Hilversum",
    "website": "https://www.mediapark.nl/faciliteiten/the-deli/",
    "phone": null,
    "cuisine": null,
    "outdoor_seating": null,
    "wheelchair": null,
    "opening_hours": null
  },
  {
    "osm_id": 2878025326,
    "osm_type": "node",
    "name": "Dudockx",
    "amenity": "restaurant",
    "lat": 52.2210474,
    "lng": 5.1417067,
    "address": "Vreelandseweg 50",
    "city": "Hilversum",
    "website": "https://dudockx.nl/",
    "phone": null,
    "cuisine": "french",
    "outdoor_seating": null,
    "wheelchair": null,
    "opening_hours": null
  },
  {
    "osm_id": 2878232018,
    "osm_type": "node",
    "name": "Snackbar De Admiraal",
    "amenity": "fast_food",
    "lat": 52.2108681,
    "lng": 5.1569816,
    "address": "Admiraal de Ruyterlaan 8",
    "city": "Hilversum",
    "website": null,
    "phone": null,
    "cuisine": "dutch;italian;turkish;fried_food",
    "outdoor_seating": "no",
    "wheelchair": null,
    "opening_hours": "Mo-Sa 11:00-22:00, Su 12:00-22:00"
  },
  {
    "osm_id": 2878332373,
    "osm_type": "node",
    "name": "Restaurant de Rading",
    "amenity": "restaurant",
    "lat": 52.1837175,
    "lng": 5.1763651,
    "address": "Utrechtseweg 140",
    "city": "Hilversum",
    "website": "http://restaurantderading.nl",
    "phone": "+31 35 577 1210",
    "cuisine": null,
    "outdoor_seating": null,
    "wheelchair": null,
    "opening_hours": null
  },
  {
    "osm_id": 2878332386,
    "osm_type": "node",
    "name": "Brasserie Zonnestraal",
    "amenity": "restaurant",
    "lat": 52.2006055,
    "lng": 5.1539804,
    "address": "Loosdrechtse Bos 19",
    "city": "Hilversum",
    "website": "https://brasserie-zonnestraal.nl",
    "phone": null,
    "cuisine": null,
    "outdoor_seating": null,
    "wheelchair": "yes",
    "opening_hours": "Mo-Su 10:00-17:00"
  },
  {
    "osm_id": 2878332391,
    "osm_type": "node",
    "name": "Piment",
    "amenity": "cafe",
    "lat": 52.2055389,
    "lng": 5.1435867,
    "address": "Rading 1B",
    "city": "Hilversum",
    "website": "https://www.pimentcatering.nl/lunchcaf%C3%A9-en-menu",
    "phone": null,
    "cuisine": null,
    "outdoor_seating": null,
    "wheelchair": null,
    "opening_hours": null
  },
  {
    "osm_id": 2878332877,
    "osm_type": "node",
    "name": "Bij de Tuinman",
    "amenity": "restaurant",
    "lat": 52.1966869,
    "lng": 5.1647384,
    "address": "Hoorneboeg 4",
    "city": "Hilversum",
    "website": "https://bijdetuinman.nl/",
    "phone": null,
    "cuisine": "local",
    "outdoor_seating": null,
    "wheelchair": null,
    "opening_hours": "Sa-Su 17:00-22:00"
  },
  {
    "osm_id": 2878362576,
    "osm_type": "node",
    "name": "Floyds",
    "amenity": "restaurant",
    "lat": 52.1910547,
    "lng": 5.1604487,
    "address": "Noodweg 35",
    "city": "Hilversum",
    "website": null,
    "phone": null,
    "cuisine": null,
    "outdoor_seating": null,
    "wheelchair": null,
    "opening_hours": null
  },
  {
    "osm_id": 2878453216,
    "osm_type": "node",
    "name": "Snackbar 't Kamrad",
    "amenity": "fast_food",
    "lat": 52.228151,
    "lng": 5.2004849,
    "address": "Kamerlingh Onnesweg 156",
    "city": "Hilversum",
    "website": null,
    "phone": null,
    "cuisine": null,
    "outdoor_seating": null,
    "wheelchair": "limited",
    "opening_hours": null
  },
  {
    "osm_id": 2878501570,
    "osm_type": "node",
    "name": "Broodje Noord",
    "amenity": "cafe",
    "lat": 52.2377587,
    "lng": 5.1741933,
    "address": "Noorderweg 229",
    "city": "Hilversum",
    "website": null,
    "phone": null,
    "cuisine": "sandwich",
    "outdoor_seating": null,
    "wheelchair": null,
    "opening_hours": null
  },
  {
    "osm_id": 2878507381,
    "osm_type": "node",
    "name": "Snackbar Graaf Jacob",
    "amenity": "fast_food",
    "lat": 52.2382329,
    "lng": 5.1856818,
    "address": "Jacob van Campenlaan 117",
    "city": "Hilversum",
    "website": null,
    "phone": null,
    "cuisine": null,
    "outdoor_seating": null,
    "wheelchair": null,
    "opening_hours": null
  },
  {
    "osm_id": 2878608154,
    "osm_type": "node",
    "name": "Siam Secret",
    "amenity": "restaurant",
    "lat": 52.234402,
    "lng": 5.1879554,
    "address": "Jan van der Heijdenstraat 1",
    "city": "Hilversum",
    "website": "https://siamsecret.nl",
    "phone": "+31 35 647 0603",
    "cuisine": null,
    "outdoor_seating": null,
    "wheelchair": null,
    "opening_hours": "Tu-Su 16:00-21:00"
  },
  {
    "osm_id": 2878610241,
    "osm_type": "node",
    "name": "Domino's",
    "amenity": "fast_food",
    "lat": 52.2342839,
    "lng": 5.1881708,
    "address": "Hoge Larenseweg 253",
    "city": "Hilversum",
    "website": null,
    "phone": null,
    "cuisine": "pizza",
    "outdoor_seating": null,
    "wheelchair": null,
    "opening_hours": null
  },
  {
    "osm_id": 2878711982,
    "osm_type": "node",
    "name": "Eetcafé Nieuw Statewapen",
    "amenity": "restaurant",
    "lat": 52.2154843,
    "lng": 5.1899388,
    "address": "Soestdijkerstraatweg 42",
    "city": "Hilversum",
    "website": null,
    "phone": null,
    "cuisine": null,
    "outdoor_seating": null,
    "wheelchair": null,
    "opening_hours": null
  },
  {
    "osm_id": 2878711983,
    "osm_type": "node",
    "name": "Boeddha Oriental",
    "amenity": "restaurant",
    "lat": 52.2153135,
    "lng": 5.1900923,
    "address": "Soestdijkerstraatweg 42A",
    "city": "Hilversum",
    "website": "https://www.boeddha-oriental.nl",
    "phone": null,
    "cuisine": "asian",
    "outdoor_seating": null,
    "wheelchair": null,
    "opening_hours": null
  },
  {
    "osm_id": 2878785438,
    "osm_type": "node",
    "name": "Royal Mandarin",
    "amenity": "restaurant",
    "lat": 52.2215167,
    "lng": 5.1790838,
    "address": "Emmastraat 9",
    "city": "Hilversum",
    "website": null,
    "phone": null,
    "cuisine": "chinese",
    "outdoor_seating": null,
    "wheelchair": null,
    "opening_hours": null
  },
  {
    "osm_id": 2878845588,
    "osm_type": "node",
    "name": "Bakkerij Roos",
    "amenity": "fast_food",
    "lat": 52.2274707,
    "lng": 5.1829615,
    "address": "Larenseweg 16",
    "city": "Hilversum",
    "website": "https://snackbar-bakkerijroos.nl/",
    "phone": null,
    "cuisine": "turkish",
    "outdoor_seating": null,
    "wheelchair": null,
    "opening_hours": null
  },
  {
    "osm_id": 2878845600,
    "osm_type": "node",
    "name": "Van Die Vegans",
    "amenity": "restaurant",
    "lat": 52.2274719,
    "lng": 5.1830493,
    "address": "Larenseweg 18",
    "city": "Hilversum",
    "website": "https://www.vandievegans.nl/",
    "phone": null,
    "cuisine": null,
    "outdoor_seating": null,
    "wheelchair": null,
    "opening_hours": "Th-Sa 11:00-18:00"
  },
  {
    "osm_id": 2878847688,
    "osm_type": "node",
    "name": "Meiwei Time",
    "amenity": "fast_food",
    "lat": 52.2271411,
    "lng": 5.1829727,
    "address": "Kleine Drift 9",
    "city": "Hilversum",
    "website": null,
    "phone": null,
    "cuisine": "sushi",
    "outdoor_seating": null,
    "wheelchair": null,
    "opening_hours": null
  },
  {
    "osm_id": 2878862292,
    "osm_type": "node",
    "name": "Glenn's Kitchen",
    "amenity": "fast_food",
    "lat": 52.2276602,
    "lng": 5.1832041,
    "address": "Larenseweg 21",
    "city": "Hilversum",
    "website": "https://www.glenns-kitchen-hilversum.nl/",
    "phone": null,
    "cuisine": "burger",
    "outdoor_seating": null,
    "wheelchair": null,
    "opening_hours": null
  },
  {
    "osm_id": 2878882719,
    "osm_type": "node",
    "name": "Sushi Point!",
    "amenity": "fast_food",
    "lat": 52.2297295,
    "lng": 5.1792492,
    "address": "Noorderweg 70",
    "city": "Hilversum",
    "website": "https://www.sushipoint.nl/",
    "phone": null,
    "cuisine": "sushi",
    "outdoor_seating": null,
    "wheelchair": null,
    "opening_hours": null
  },
  {
    "osm_id": 2878958820,
    "osm_type": "node",
    "name": "Eetcafe Costa",
    "amenity": "restaurant",
    "lat": 52.2286643,
    "lng": 5.1761388,
    "address": "Naarderstraat 57",
    "city": "Hilversum",
    "website": null,
    "phone": null,
    "cuisine": null,
    "outdoor_seating": null,
    "wheelchair": null,
    "opening_hours": null
  },
  {
    "osm_id": 2878958837,
    "osm_type": "node",
    "name": "Thaise Tafel",
    "amenity": "fast_food",
    "lat": 52.2287515,
    "lng": 5.1760677,
    "address": "Naarderstraat 61",
    "city": "Hilversum",
    "website": "https://www.thaisetafel.nl/",
    "phone": null,
    "cuisine": "thai",
    "outdoor_seating": null,
    "wheelchair": null,
    "opening_hours": null
  },
  {
    "osm_id": 2878958838,
    "osm_type": "node",
    "name": "Café & Restaurant De Eendracht Hilversum",
    "amenity": "restaurant",
    "lat": 52.2282061,
    "lng": 5.1666598,
    "address": "'s-Gravelandseweg 62",
    "city": "Hilversum",
    "website": "https://www.deeendracht-hilversum.nl/",
    "phone": null,
    "cuisine": null,
    "outdoor_seating": null,
    "wheelchair": null,
    "opening_hours": null
  },
  {
    "osm_id": 2878967409,
    "osm_type": "node",
    "name": "Casa di Lorenza",
    "amenity": "restaurant",
    "lat": 52.2275301,
    "lng": 5.1794852,
    "address": "Koninginneweg 88",
    "city": "Hilversum",
    "website": "https://www.casadilorenza.com/",
    "phone": null,
    "cuisine": "italian",
    "outdoor_seating": null,
    "wheelchair": null,
    "opening_hours": null
  },
  {
    "osm_id": 2878973634,
    "osm_type": "node",
    "name": "Bistro Vos",
    "amenity": "restaurant",
    "lat": 52.2250828,
    "lng": 5.1780767,
    "address": "Biersteeg 15",
    "city": "Hilversum",
    "website": "https://bistrovos.nl/",
    "phone": null,
    "cuisine": null,
    "outdoor_seating": null,
    "wheelchair": null,
    "opening_hours": null
  },
  {
    "osm_id": 2878973721,
    "osm_type": "node",
    "name": "You & Me Café Hilversum",
    "amenity": "cafe",
    "lat": 52.2258196,
    "lng": 5.1777284,
    "address": "Groest 19",
    "city": "Hilversum",
    "website": null,
    "phone": null,
    "cuisine": "coffee_shop",
    "outdoor_seating": "yes",
    "wheelchair": "yes",
    "opening_hours": "Mo-We,Fr,Sa 09:00-18:00; Su 10:00-18:00; Th 09:00-21:00"
  },
  {
    "osm_id": 2878973916,
    "osm_type": "node",
    "name": "Cursar",
    "amenity": "restaurant",
    "lat": 52.2260304,
    "lng": 5.1796803,
    "address": "Leeuwenstraat 24",
    "city": "Hilversum",
    "website": "https://www.bestellen-cursar.nl/",
    "phone": null,
    "cuisine": "vietnamese",
    "outdoor_seating": null,
    "wheelchair": null,
    "opening_hours": null
  },
  {
    "osm_id": 2878973927,
    "osm_type": "node",
    "name": "Nannes",
    "amenity": "cafe",
    "lat": 52.2255525,
    "lng": 5.17766,
    "address": "Groest 25",
    "city": "Hilversum",
    "website": null,
    "phone": null,
    "cuisine": null,
    "outdoor_seating": null,
    "wheelchair": null,
    "opening_hours": null
  },
  {
    "osm_id": 2878974416,
    "osm_type": "node",
    "name": "Snackbar & Bakkerij Roos",
    "amenity": "restaurant",
    "lat": 52.2252908,
    "lng": 5.1776319,
    "address": "Groest 31",
    "city": "Hilversum",
    "website": "https://www.bakkerijroos.nl/index.html",
    "phone": null,
    "cuisine": "kebab",
    "outdoor_seating": "yes",
    "wheelchair": null,
    "opening_hours": null
  },
  {
    "osm_id": 2878974447,
    "osm_type": "node",
    "name": "Kings friet en ijs",
    "amenity": "fast_food",
    "lat": 52.2266594,
    "lng": 5.1778365,
    "address": "Stationsstraat 35",
    "city": "Hilversum",
    "website": null,
    "phone": null,
    "cuisine": null,
    "outdoor_seating": null,
    "wheelchair": null,
    "opening_hours": null
  },
  {
    "osm_id": 2878975396,
    "osm_type": "node",
    "name": "Sumo",
    "amenity": "restaurant",
    "lat": 52.2248731,
    "lng": 5.1777457,
    "address": "Groest 53",
    "city": "Hilversum",
    "website": "https://www.restaurantsumo.com/sumo-sushi-hilversum/",
    "phone": null,
    "cuisine": "japanese",
    "outdoor_seating": null,
    "wheelchair": null,
    "opening_hours": null
  },
  {
    "osm_id": 2878982099,
    "osm_type": "node",
    "name": "Eetcafé Gulle Graef",
    "amenity": "restaurant",
    "lat": 52.2226476,
    "lng": 5.1747668,
    "address": "Laanstraat 37",
    "city": "Hilversum",
    "website": "https://gullegraef.nl",
    "phone": "+31 35 624 5402",
    "cuisine": "dutch",
    "outdoor_seating": null,
    "wheelchair": null,
    "opening_hours": "Mo-Su 16:00-24:00"
  },
  {
    "osm_id": 2878982497,
    "osm_type": "node",
    "name": "IJscuypje",
    "amenity": "ice_cream",
    "lat": 52.2237715,
    "lng": 5.1773451,
    "address": "Groest 94",
    "city": "Hilversum",
    "website": "https://www.ijscuypje.nl/",
    "phone": "+31 20 617 0039",
    "cuisine": "ice_cream",
    "outdoor_seating": null,
    "wheelchair": null,
    "opening_hours": "Mo,Tu 12:00-21:00; We-Su 12:00-22:00"
  },
  {
    "osm_id": 2878984563,
    "osm_type": "node",
    "name": "'t Zusje",
    "amenity": "restaurant",
    "lat": 52.2240999,
    "lng": 5.1765926,
    "address": "Herenstraat 10",
    "city": "Hilversum",
    "website": "https://zusje.nl/onze-zusjes/hilversum/",
    "phone": "+31 35 7200727",
    "cuisine": "tapas",
    "outdoor_seating": null,
    "wheelchair": null,
    "opening_hours": null
  },
  {
    "osm_id": 2878985243,
    "osm_type": "node",
    "name": "Nori and Rice",
    "amenity": "restaurant",
    "lat": 52.2240525,
    "lng": 5.1753687,
    "address": "Herenstraat 20",
    "city": "Hilversum",
    "website": null,
    "phone": null,
    "cuisine": null,
    "outdoor_seating": null,
    "wheelchair": null,
    "opening_hours": null
  },
  {
    "osm_id": 2878985270,
    "osm_type": "node",
    "name": "Loetje",
    "amenity": "restaurant",
    "lat": 52.2243397,
    "lng": 5.172285,
    "address": "Kerkbrink 2D",
    "city": "Hilversum",
    "website": "https://www.loetje.nl/locaties/hilversum/",
    "phone": "+31 35 200 2838",
    "cuisine": "steak_house",
    "outdoor_seating": null,
    "wheelchair": "yes",
    "opening_hours": "Mo off; Tu-Th,Su 11:30-21:30; Fr-Sa 11:30-22:00"
  },
  {
    "osm_id": 2878985340,
    "osm_type": "node",
    "name": "Back Werk",
    "amenity": "fast_food",
    "lat": 52.2252939,
    "lng": 5.177281,
    "address": "Groest 60",
    "city": "Hilversum",
    "website": null,
    "phone": null,
    "cuisine": "sandwich",
    "outdoor_seating": null,
    "wheelchair": null,
    "opening_hours": null
  },
  {
    "osm_id": 2878987950,
    "osm_type": "node",
    "name": "Kippie",
    "amenity": "fast_food",
    "lat": 52.2256112,
    "lng": 5.1764479,
    "address": "Kerkstraat 18",
    "city": "Hilversum",
    "website": "https://www.kippie.nl/winkels/hilversum",
    "phone": "+31 35 7370459",
    "cuisine": "chicken",
    "outdoor_seating": null,
    "wheelchair": "yes",
    "opening_hours": "Mo-Fr 09:00-18:00; Sa 09:00-17:30; Su off"
  },
  {
    "osm_id": 2878987958,
    "osm_type": "node",
    "name": "FEBO",
    "amenity": "fast_food",
    "lat": 52.2256333,
    "lng": 5.1772889,
    "address": "Kerkstraat 2",
    "city": "Hilversum",
    "website": "https://www.febo.nl/locaties/hilversum-zeedijk/",
    "phone": null,
    "cuisine": "friture",
    "outdoor_seating": null,
    "wheelchair": "yes",
    "opening_hours": null
  },
  {
    "osm_id": 2878988027,
    "osm_type": "node",
    "name": "Fat Phill's",
    "amenity": "fast_food",
    "lat": 52.2256518,
    "lng": 5.1757105,
    "address": "Kerkstraat 34",
    "city": "Hilversum",
    "website": "https://fatphillsdiner.com/fat-phills-hilversum/",
    "phone": "+31 85 303 0725",
    "cuisine": "burger",
    "outdoor_seating": null,
    "wheelchair": "limited",
    "opening_hours": "Mo-Su 12:00-22:00"
  },
  {
    "osm_id": 2878988037,
    "osm_type": "node",
    "name": "Ritos",
    "amenity": "fast_food",
    "lat": 52.2256189,
    "lng": 5.1771836,
    "address": "Kerkstraat 4",
    "city": "Hilversum",
    "website": null,
    "phone": null,
    "cuisine": "mexican",
    "outdoor_seating": null,
    "wheelchair": "limited",
    "opening_hours": null
  },
  {
    "osm_id": 2878991479,
    "osm_type": "node",
    "name": "De Koffiebranderij",
    "amenity": "cafe",
    "lat": 52.2249392,
    "lng": 5.1725611,
    "address": "Kerkstraat 100",
    "city": "Hilversum",
    "website": null,
    "phone": null,
    "cuisine": null,
    "outdoor_seating": null,
    "wheelchair": null,
    "opening_hours": null
  },
  {
    "osm_id": 2878991489,
    "osm_type": "node",
    "name": "Meddens",
    "amenity": "restaurant",
    "lat": 52.2245694,
    "lng": 5.1721429,
    "address": "Kerkstraat 112",
    "city": "Hilversum",
    "website": "https://www.meddenshilversum.nl",
    "phone": null,
    "cuisine": null,
    "outdoor_seating": null,
    "wheelchair": "yes",
    "opening_hours": "Mo-We,Su 10:00-00:00; Th-Sa 10:00-01:00"
  },
  {
    "osm_id": 2878993298,
    "osm_type": "node",
    "name": "Chicky Moon",
    "amenity": "fast_food",
    "lat": 52.2261317,
    "lng": 5.1702172,
    "address": "Albertus Perkstraat 1",
    "city": "Hilversum",
    "website": null,
    "phone": null,
    "cuisine": "chicken",
    "outdoor_seating": null,
    "wheelchair": null,
    "opening_hours": null
  },
  {
    "osm_id": 2878994702,
    "osm_type": "node",
    "name": "Batu Biru",
    "amenity": "restaurant",
    "lat": 52.2257726,
    "lng": 5.1723181,
    "address": "'s-Gravelandseweg 12A-3",
    "city": "Hilversum",
    "website": "http://www.batubiru.nl",
    "phone": "+31 35 773 7407",
    "cuisine": "indonesian",
    "outdoor_seating": null,
    "wheelchair": null,
    "opening_hours": "Tu-Su 14:00-21:00"
  },
  {
    "osm_id": 2878994709,
    "osm_type": "node",
    "name": "ROAST",
    "amenity": "cafe",
    "lat": 52.2255997,
    "lng": 5.1718134,
    "address": "'s-Gravelandseweg 12D",
    "city": "Hilversum",
    "website": null,
    "phone": null,
    "cuisine": null,
    "outdoor_seating": null,
    "wheelchair": null,
    "opening_hours": null
  },
  {
    "osm_id": 2878994714,
    "osm_type": "node",
    "name": "30ml",
    "amenity": "cafe",
    "lat": 52.2256204,
    "lng": 5.1717381,
    "address": "'s-Gravelandseweg 14",
    "city": "Hilversum",
    "website": null,
    "phone": null,
    "cuisine": "coffee_shop",
    "outdoor_seating": null,
    "wheelchair": null,
    "opening_hours": null
  },
  {
    "osm_id": 2878995440,
    "osm_type": "node",
    "name": "Paisan",
    "amenity": "restaurant",
    "lat": 52.2261396,
    "lng": 5.1710117,
    "address": "'s-Gravelandseweg 46",
    "city": "Hilversum",
    "website": null,
    "phone": null,
    "cuisine": "mediterranean",
    "outdoor_seating": null,
    "wheelchair": null,
    "opening_hours": null
  },
  {
    "osm_id": 2878995496,
    "osm_type": "node",
    "name": "Papa John's",
    "amenity": "fast_food",
    "lat": 52.2270391,
    "lng": 5.1758764,
    "address": "Bussumerstraat 8",
    "city": "Hilversum",
    "website": null,
    "phone": null,
    "cuisine": "pizza",
    "outdoor_seating": null,
    "wheelchair": null,
    "opening_hours": null
  },
  {
    "osm_id": 2878995704,
    "osm_type": "node",
    "name": "Frankie's BubbleTea",
    "amenity": "fast_food",
    "lat": 52.225187,
    "lng": 5.1731271,
    "address": "Kerkstraat 86",
    "city": "Hilversum",
    "website": null,
    "phone": null,
    "cuisine": "bubble_tea;vietnamese",
    "outdoor_seating": "no",
    "wheelchair": "no",
    "opening_hours": "11:30-18:00"
  },
  {
    "osm_id": 2878995705,
    "osm_type": "node",
    "name": "Van Drimmelen",
    "amenity": "cafe",
    "lat": 52.2251296,
    "lng": 5.173105,
    "address": "Kerkstraat 88",
    "city": "Hilversum",
    "website": null,
    "phone": null,
    "cuisine": null,
    "outdoor_seating": null,
    "wheelchair": null,
    "opening_hours": "Mo 10:00-17:30; Th 08:30-21:00; Tu,We,Fr,Sa 08:30-17:30; Su 11:30-17:00"
  },
  {
    "osm_id": 2878995723,
    "osm_type": "node",
    "name": "KWEEK Foodbar",
    "amenity": "cafe",
    "lat": 52.2248627,
    "lng": 5.1727547,
    "address": "Kerkstraat 98",
    "city": "Hilversum",
    "website": "https://kweekfoodbar.nl",
    "phone": null,
    "cuisine": "coffee_shop",
    "outdoor_seating": null,
    "wheelchair": null,
    "opening_hours": null
  },
  {
    "osm_id": 2878999445,
    "osm_type": "node",
    "name": "Menara",
    "amenity": "restaurant",
    "lat": 52.2236491,
    "lng": 5.1724007,
    "address": "Langestraat 107",
    "city": "Hilversum",
    "website": "https://www.menaracatering-hilversum.nl/?kw1",
    "phone": "+31 35 772 6876",
    "cuisine": "morrocan",
    "outdoor_seating": "yes",
    "wheelchair": null,
    "opening_hours": "16:30-03:00"
  },
  {
    "osm_id": 2879038892,
    "osm_type": "node",
    "name": "Snackbar Zeverijn",
    "amenity": "fast_food",
    "lat": 52.2188157,
    "lng": 5.1501626,
    "address": "Bosje van Zeverijn 1",
    "city": "Hilversum",
    "website": null,
    "phone": null,
    "cuisine": null,
    "outdoor_seating": null,
    "wheelchair": null,
    "opening_hours": null
  },
  {
    "osm_id": 2879055450,
    "osm_type": "node",
    "name": "Mr. Sushi & Miss Wok",
    "amenity": "fast_food",
    "lat": 52.2160606,
    "lng": 5.1615661,
    "address": "Gijsbrecht van Amstelstraat 301",
    "city": "Hilversum",
    "website": "https://hilversum.mrsushi.nl/informatie.php",
    "phone": "+31 35 623 8518",
    "cuisine": "sushi",
    "outdoor_seating": "no",
    "wheelchair": null,
    "opening_hours": "Mo-Th,Sa-Su 13:00-21:30; Fr 12:30-21:30"
  },
  {
    "osm_id": 2879076366,
    "osm_type": "node",
    "name": "Restaurant Parc",
    "amenity": "restaurant",
    "lat": 52.2193631,
    "lng": 5.1670558,
    "address": "Havenstraat 58",
    "city": "Hilversum",
    "website": null,
    "phone": null,
    "cuisine": "international",
    "outdoor_seating": "yes",
    "wheelchair": null,
    "opening_hours": null
  },
  {
    "osm_id": 2879083000,
    "osm_type": "node",
    "name": "Il Porto",
    "amenity": "restaurant",
    "lat": 52.2208651,
    "lng": 5.1680827,
    "address": "Havenstraat 32",
    "city": "Hilversum",
    "website": "https://ilporto.nl",
    "phone": null,
    "cuisine": "italian",
    "outdoor_seating": null,
    "wheelchair": "limited",
    "opening_hours": null
  },
  {
    "osm_id": 2879083023,
    "osm_type": "node",
    "name": "Shanthy",
    "amenity": "restaurant",
    "lat": 52.2207871,
    "lng": 5.1680154,
    "address": "Havenstraat 36",
    "city": "Hilversum",
    "website": "https://shanthy.nl/",
    "phone": null,
    "cuisine": "indian",
    "outdoor_seating": null,
    "wheelchair": null,
    "opening_hours": null
  },
  {
    "osm_id": 2879083033,
    "osm_type": "node",
    "name": "D-Thais",
    "amenity": "restaurant",
    "lat": 52.2207462,
    "lng": 5.1679924,
    "address": "Havenstraat 38",
    "city": "Hilversum",
    "website": "https://www.restaurantd-thais-hilversum.nl/",
    "phone": null,
    "cuisine": "thai",
    "outdoor_seating": null,
    "wheelchair": "limited",
    "opening_hours": null
  },
  {
    "osm_id": 2879083096,
    "osm_type": "node",
    "name": "Holyland",
    "amenity": "restaurant",
    "lat": 52.2204971,
    "lng": 5.1677075,
    "address": "Havenstraat 46",
    "city": "Hilversum",
    "website": "https://www.israelisch-restaurant-grillroom-holyland.nl/",
    "phone": null,
    "cuisine": null,
    "outdoor_seating": null,
    "wheelchair": null,
    "opening_hours": null
  },
  {
    "osm_id": 2879091101,
    "osm_type": "node",
    "name": "Taco Company",
    "amenity": "fast_food",
    "lat": 52.2218815,
    "lng": 5.1690631,
    "address": "Havenstraat 51",
    "city": "Hilversum",
    "website": "https://www.tacocompany.nl/",
    "phone": null,
    "cuisine": "mexican",
    "outdoor_seating": null,
    "wheelchair": "no",
    "opening_hours": null
  },
  {
    "osm_id": 2879097447,
    "osm_type": "node",
    "name": "Bassano",
    "amenity": "fast_food",
    "lat": 52.2219586,
    "lng": 5.1744237,
    "address": "Neuweg 1",
    "city": "Hilversum",
    "website": "https://www.bassano-hilversum.nl/",
    "phone": null,
    "cuisine": "italian",
    "outdoor_seating": null,
    "wheelchair": "limited",
    "opening_hours": null
  },
  {
    "osm_id": 2879128921,
    "osm_type": "node",
    "name": "Cigkoftem",
    "amenity": "fast_food",
    "lat": 52.2157977,
    "lng": 5.167852,
    "address": "Hilvertsweg 119",
    "city": "Hilversum",
    "website": null,
    "phone": null,
    "cuisine": "turkish",
    "outdoor_seating": null,
    "wheelchair": null,
    "opening_hours": null
  },
  {
    "osm_id": 2879128934,
    "osm_type": "node",
    "name": "New York Pizza",
    "amenity": "fast_food",
    "lat": 52.2160424,
    "lng": 5.1693316,
    "address": "Gijsbrecht van Amstelstraat 146",
    "city": "Hilversum",
    "website": "https://www.newyorkpizza.nl/vestigingen/pizza-bestellen-hilversum-gijsbrecht-van-amstelstraat",
    "phone": "+31 35 628 8662",
    "cuisine": "pizza",
    "outdoor_seating": "no",
    "wheelchair": "limited",
    "opening_hours": null
  },
  {
    "osm_id": 2879131867,
    "osm_type": "node",
    "name": "Sinar Djaya",
    "amenity": "restaurant",
    "lat": 52.2159816,
    "lng": 5.1674765,
    "address": "Hilvertsweg 58",
    "city": "Hilversum",
    "website": null,
    "phone": null,
    "cuisine": "indonesian",
    "outdoor_seating": null,
    "wheelchair": null,
    "opening_hours": null
  },
  {
    "osm_id": 2879133666,
    "osm_type": "node",
    "name": "Ali Baba",
    "amenity": "fast_food",
    "lat": 52.2136472,
    "lng": 5.1677223,
    "address": "Hilvertsweg 136",
    "city": "Hilversum",
    "website": "https://www.alibabagrillroom-hilversum.nl/",
    "phone": null,
    "cuisine": "turkish",
    "outdoor_seating": null,
    "wheelchair": "no",
    "opening_hours": null
  },
  {
    "osm_id": 2879133734,
    "osm_type": "node",
    "name": "Salad Guys",
    "amenity": "fast_food",
    "lat": 52.2153525,
    "lng": 5.1672583,
    "address": "Gijsbrecht van Amstelstraat 187",
    "city": "Hilversum",
    "website": "https://www.saladguys.nl/",
    "phone": null,
    "cuisine": null,
    "outdoor_seating": "no",
    "wheelchair": null,
    "opening_hours": "Mo-Fr 11:00-20:00; Sa-Su off"
  },
  {
    "osm_id": 2879147351,
    "osm_type": "node",
    "name": "Natalia's Kitchen",
    "amenity": "restaurant",
    "lat": 52.2158261,
    "lng": 5.1711627,
    "address": "Gijsbrecht van Amstelstraat 111",
    "city": "Hilversum",
    "website": null,
    "phone": null,
    "cuisine": null,
    "outdoor_seating": null,
    "wheelchair": "limited",
    "opening_hours": "Mo,Su off; Tu-Th 10:00-20:00; Fr-Sa 10:00-22:00"
  },
  {
    "osm_id": 2879147385,
    "osm_type": "node",
    "name": "Café Geer van Amstel",
    "amenity": "cafe",
    "lat": 52.2158063,
    "lng": 5.1693101,
    "address": "Gijsbrecht van Amstelstraat 145",
    "city": "Hilversum",
    "website": null,
    "phone": null,
    "cuisine": null,
    "outdoor_seating": null,
    "wheelchair": "no",
    "opening_hours": null
  },
  {
    "osm_id": 2879147683,
    "osm_type": "node",
    "name": "IJssalon Pistache",
    "amenity": "ice_cream",
    "lat": 52.2137419,
    "lng": 5.1680524,
    "address": "Hilvertsweg 193",
    "city": "Hilversum",
    "website": "https://www.ijssalonpistache.nl",
    "phone": null,
    "cuisine": null,
    "outdoor_seating": "no",
    "wheelchair": "yes",
    "opening_hours": "13:00-22:00"
  },
  {
    "osm_id": 3052160297,
    "osm_type": "node",
    "name": "Restaurant Vliegveld Hilversum",
    "amenity": "restaurant",
    "lat": 52.1932993,
    "lng": 5.1529833,
    "address": "Noodweg 43",
    "city": "Hilversum",
    "website": "https://www.restaurantvliegveldhilversum.nl/",
    "phone": "+31 35 700 9759",
    "cuisine": null,
    "outdoor_seating": null,
    "wheelchair": "yes",
    "opening_hours": "We-Fr 11:30-19:30, Sa-Su 11:30-20:30"
  },
  {
    "osm_id": 3086477264,
    "osm_type": "node",
    "name": "Maxime's Sushi",
    "amenity": "restaurant",
    "lat": 52.2276725,
    "lng": 5.1794306,
    "address": null,
    "city": null,
    "website": "https://www.maximessushi-hilversum.nl/",
    "phone": null,
    "cuisine": "sushi",
    "outdoor_seating": null,
    "wheelchair": null,
    "opening_hours": null
  },
  {
    "osm_id": 3086477268,
    "osm_type": "node",
    "name": "Eazie",
    "amenity": "restaurant",
    "lat": 52.2254782,
    "lng": 5.1772591,
    "address": null,
    "city": null,
    "website": "https://eazie.nl/",
    "phone": null,
    "cuisine": "asian",
    "outdoor_seating": null,
    "wheelchair": "yes",
    "opening_hours": null
  },
  {
    "osm_id": 3086477275,
    "osm_type": "node",
    "name": "De Leeuw",
    "amenity": "cafe",
    "lat": 52.2258334,
    "lng": 5.1792475,
    "address": null,
    "city": null,
    "website": null,
    "phone": null,
    "cuisine": "coffee_shop",
    "outdoor_seating": null,
    "wheelchair": null,
    "opening_hours": null
  },
  {
    "osm_id": 3086477286,
    "osm_type": "node",
    "name": "Panini Mario",
    "amenity": "fast_food",
    "lat": 52.2259528,
    "lng": 5.1780125,
    "address": null,
    "city": null,
    "website": null,
    "phone": null,
    "cuisine": null,
    "outdoor_seating": null,
    "wheelchair": "no",
    "opening_hours": null
  },
  {
    "osm_id": 3086477304,
    "osm_type": "node",
    "name": "Genshi",
    "amenity": "restaurant",
    "lat": 52.2246427,
    "lng": 5.1727167,
    "address": null,
    "city": null,
    "website": "https://www.genshi.nl/",
    "phone": "+31 35 234 0088",
    "cuisine": "japanese",
    "outdoor_seating": null,
    "wheelchair": null,
    "opening_hours": "Tu-Su 11:45-18:00,18:45-21:00"
  },
  {
    "osm_id": 3086477321,
    "osm_type": "node",
    "name": "De Pizzabakkers Hilversum",
    "amenity": "restaurant",
    "lat": 52.2247673,
    "lng": 5.1776968,
    "address": "Groest",
    "city": "Hilversum",
    "website": null,
    "phone": null,
    "cuisine": "pizza",
    "outdoor_seating": null,
    "wheelchair": null,
    "opening_hours": null
  },
  {
    "osm_id": 3086477324,
    "osm_type": "node",
    "name": "Berry's",
    "amenity": "fast_food",
    "lat": 52.2258235,
    "lng": 5.1779621,
    "address": null,
    "city": null,
    "website": null,
    "phone": null,
    "cuisine": "burger",
    "outdoor_seating": null,
    "wheelchair": "yes",
    "opening_hours": null
  },
  {
    "osm_id": 3086477329,
    "osm_type": "node",
    "name": "Sandwich Fikri",
    "amenity": "fast_food",
    "lat": 52.2258371,
    "lng": 5.1791744,
    "address": null,
    "city": null,
    "website": null,
    "phone": null,
    "cuisine": null,
    "outdoor_seating": null,
    "wheelchair": "limited",
    "opening_hours": null
  },
  {
    "osm_id": 3086477533,
    "osm_type": "node",
    "name": "Essalam",
    "amenity": "restaurant",
    "lat": 52.22595,
    "lng": 5.1787411,
    "address": "Leeuwenstraat 50",
    "city": "Hilversum",
    "website": "https://www.essalam-hilversum.nl/",
    "phone": null,
    "cuisine": "turkish",
    "outdoor_seating": null,
    "wheelchair": "yes",
    "opening_hours": null
  },
  {
    "osm_id": 3086924767,
    "osm_type": "node",
    "name": "Groest 44",
    "amenity": "cafe",
    "lat": 52.2262693,
    "lng": 5.1773531,
    "address": null,
    "city": null,
    "website": null,
    "phone": null,
    "cuisine": null,
    "outdoor_seating": null,
    "wheelchair": null,
    "opening_hours": null
  },
  {
    "osm_id": 3086924771,
    "osm_type": "node",
    "name": "The King",
    "amenity": "fast_food",
    "lat": 52.2259891,
    "lng": 5.1773617,
    "address": null,
    "city": null,
    "website": null,
    "phone": null,
    "cuisine": null,
    "outdoor_seating": null,
    "wheelchair": "yes",
    "opening_hours": null
  },
  {
    "osm_id": 3086924772,
    "osm_type": "node",
    "name": "De Smidse",
    "amenity": "restaurant",
    "lat": 52.2259412,
    "lng": 5.1756252,
    "address": null,
    "city": null,
    "website": null,
    "phone": null,
    "cuisine": null,
    "outdoor_seating": null,
    "wheelchair": null,
    "opening_hours": null
  },
  {
    "osm_id": 3086924783,
    "osm_type": "node",
    "name": "Yell's Favorites",
    "amenity": "cafe",
    "lat": 52.224558,
    "lng": 5.1736325,
    "address": null,
    "city": null,
    "website": null,
    "phone": null,
    "cuisine": null,
    "outdoor_seating": null,
    "wheelchair": null,
    "opening_hours": null
  },
  {
    "osm_id": 3086924790,
    "osm_type": "node",
    "name": "Cofresh",
    "amenity": "fast_food",
    "lat": 52.2221118,
    "lng": 5.1751428,
    "address": null,
    "city": null,
    "website": null,
    "phone": null,
    "cuisine": null,
    "outdoor_seating": null,
    "wheelchair": null,
    "opening_hours": null
  },
  {
    "osm_id": 3086924802,
    "osm_type": "node",
    "name": "Good Grounds",
    "amenity": "cafe",
    "lat": 52.2248085,
    "lng": 5.1739818,
    "address": null,
    "city": null,
    "website": "https://goodgrounds.store",
    "phone": null,
    "cuisine": null,
    "outdoor_seating": null,
    "wheelchair": null,
    "opening_hours": null
  },
  {
    "osm_id": 3086924819,
    "osm_type": "node",
    "name": "Theehuis Sahara",
    "amenity": "cafe",
    "lat": 52.2233445,
    "lng": 5.1725292,
    "address": "Langestraat 101",
    "city": null,
    "website": null,
    "phone": null,
    "cuisine": null,
    "outdoor_seating": null,
    "wheelchair": null,
    "opening_hours": null
  },
  {
    "osm_id": 3089123992,
    "osm_type": "node",
    "name": "Delhi Darbaar",
    "amenity": "restaurant",
    "lat": 52.2214144,
    "lng": 5.1686928,
    "address": null,
    "city": null,
    "website": null,
    "phone": null,
    "cuisine": null,
    "outdoor_seating": null,
    "wheelchair": "limited",
    "opening_hours": null
  },
  {
    "osm_id": 3089123993,
    "osm_type": "node",
    "name": "De Kaars",
    "amenity": "restaurant",
    "lat": 52.2219798,
    "lng": 5.1688268,
    "address": null,
    "city": null,
    "website": null,
    "phone": null,
    "cuisine": null,
    "outdoor_seating": null,
    "wheelchair": "no",
    "opening_hours": null
  },
  {
    "osm_id": 3089123994,
    "osm_type": "node",
    "name": "Jimix Bar Asian Kitchen",
    "amenity": "restaurant",
    "lat": 52.2227484,
    "lng": 5.1688486,
    "address": null,
    "city": null,
    "website": null,
    "phone": null,
    "cuisine": "asian",
    "outdoor_seating": null,
    "wheelchair": null,
    "opening_hours": null
  },
  {
    "osm_id": 3090709789,
    "osm_type": "node",
    "name": "Lai Do",
    "amenity": "restaurant",
    "lat": 52.2157788,
    "lng": 5.141257,
    "address": null,
    "city": null,
    "website": null,
    "phone": null,
    "cuisine": "chinese",
    "outdoor_seating": null,
    "wheelchair": null,
    "opening_hours": null
  },
  {
    "osm_id": 3343904499,
    "osm_type": "node",
    "name": "IJssalon Buon Gusto",
    "amenity": "fast_food",
    "lat": 52.2158428,
    "lng": 5.1708168,
    "address": null,
    "city": null,
    "website": null,
    "phone": null,
    "cuisine": "ice_cream",
    "outdoor_seating": null,
    "wheelchair": "limited",
    "opening_hours": null
  },
  {
    "osm_id": 3343904500,
    "osm_type": "node",
    "name": "Snackline Gijsbrecht",
    "amenity": "fast_food",
    "lat": 52.216077,
    "lng": 5.1704855,
    "address": null,
    "city": null,
    "website": null,
    "phone": null,
    "cuisine": null,
    "outdoor_seating": null,
    "wheelchair": "limited",
    "opening_hours": null
  },
  {
    "osm_id": 3671108133,
    "osm_type": "node",
    "name": "Mc Crispy",
    "amenity": "restaurant",
    "lat": 52.2141414,
    "lng": 5.1677209,
    "address": null,
    "city": null,
    "website": null,
    "phone": null,
    "cuisine": "burger",
    "outdoor_seating": null,
    "wheelchair": "no",
    "opening_hours": null
  },
  {
    "osm_id": 3940362164,
    "osm_type": "node",
    "name": "Less is more lunchroom",
    "amenity": "restaurant",
    "lat": 52.2252932,
    "lng": 5.1720493,
    "address": null,
    "city": null,
    "website": null,
    "phone": null,
    "cuisine": null,
    "outdoor_seating": null,
    "wheelchair": "limited",
    "opening_hours": null
  },
  {
    "osm_id": 3940362186,
    "osm_type": "node",
    "name": "Brasserie Lunchroom FLAVOURS",
    "amenity": "restaurant",
    "lat": 52.2264796,
    "lng": 5.1777954,
    "address": null,
    "city": null,
    "website": null,
    "phone": null,
    "cuisine": null,
    "outdoor_seating": null,
    "wheelchair": null,
    "opening_hours": null
  },
  {
    "osm_id": 3940362196,
    "osm_type": "node",
    "name": "Hiba",
    "amenity": "restaurant",
    "lat": 52.2252742,
    "lng": 5.1726673,
    "address": null,
    "city": null,
    "website": "https://hibalibaneserestaurant.nl/",
    "phone": "+31 6 41826601",
    "cuisine": "lebanese",
    "outdoor_seating": null,
    "wheelchair": "yes",
    "opening_hours": "Mo off; Tu-Su 13:00-22:00"
  },
  {
    "osm_id": 3940362209,
    "osm_type": "node",
    "name": "Smullers",
    "amenity": "fast_food",
    "lat": 52.2264402,
    "lng": 5.1812796,
    "address": null,
    "city": null,
    "website": null,
    "phone": null,
    "cuisine": "friture",
    "outdoor_seating": null,
    "wheelchair": null,
    "opening_hours": null
  },
  {
    "osm_id": 3940362218,
    "osm_type": "node",
    "name": "Starbucks",
    "amenity": "cafe",
    "lat": 52.2264847,
    "lng": 5.1813869,
    "address": null,
    "city": null,
    "website": "https://www.starbucks.co.uk/store-locator/58534-310881/hilversum-starbucks",
    "phone": null,
    "cuisine": "coffee_shop",
    "outdoor_seating": null,
    "wheelchair": null,
    "opening_hours": null
  },
  {
    "osm_id": 3940362231,
    "osm_type": "node",
    "name": "De Antieke Vaas",
    "amenity": "cafe",
    "lat": 52.2250359,
    "lng": 5.1733279,
    "address": null,
    "city": null,
    "website": null,
    "phone": null,
    "cuisine": null,
    "outdoor_seating": null,
    "wheelchair": null,
    "opening_hours": null
  },
  {
    "osm_id": 4343187089,
    "osm_type": "node",
    "name": "Ganesha",
    "amenity": "restaurant",
    "lat": 52.2251507,
    "lng": 5.1790896,
    "address": null,
    "city": null,
    "website": null,
    "phone": null,
    "cuisine": null,
    "outdoor_seating": null,
    "wheelchair": "yes",
    "opening_hours": null
  },
  {
    "osm_id": 4343190168,
    "osm_type": "node",
    "name": "Mr. Ramen",
    "amenity": "restaurant",
    "lat": 52.2220946,
    "lng": 5.1748144,
    "address": null,
    "city": null,
    "website": null,
    "phone": null,
    "cuisine": "asian",
    "outdoor_seating": null,
    "wheelchair": "limited",
    "opening_hours": null
  },
  {
    "osm_id": 4343219349,
    "osm_type": "node",
    "name": "La Rosa",
    "amenity": "fast_food",
    "lat": 52.2206995,
    "lng": 5.1682645,
    "address": null,
    "city": null,
    "website": null,
    "phone": null,
    "cuisine": "pizza",
    "outdoor_seating": null,
    "wheelchair": null,
    "opening_hours": null
  },
  {
    "osm_id": 4343219350,
    "osm_type": "node",
    "name": "India Poort",
    "amenity": "restaurant",
    "lat": 52.2216066,
    "lng": 5.1684495,
    "address": null,
    "city": null,
    "website": null,
    "phone": null,
    "cuisine": "indian",
    "outdoor_seating": null,
    "wheelchair": null,
    "opening_hours": null
  },
  {
    "osm_id": 4728522889,
    "osm_type": "node",
    "name": "L'Ami",
    "amenity": "restaurant",
    "lat": 52.2234899,
    "lng": 5.1746792,
    "address": "Laanstraat",
    "city": "Hilversum",
    "website": null,
    "phone": null,
    "cuisine": null,
    "outdoor_seating": null,
    "wheelchair": null,
    "opening_hours": null
  },
  {
    "osm_id": 4868897339,
    "osm_type": "node",
    "name": "Siësta Coffee Corner",
    "amenity": "cafe",
    "lat": 52.2160781,
    "lng": 5.1418665,
    "address": "Kapittelweg 113",
    "city": "Hilversum",
    "website": null,
    "phone": null,
    "cuisine": null,
    "outdoor_seating": null,
    "wheelchair": null,
    "opening_hours": null
  },
  {
    "osm_id": 4868897351,
    "osm_type": "node",
    "name": "Cafetaria Kerkelanden",
    "amenity": "fast_food",
    "lat": 52.2156496,
    "lng": 5.1420878,
    "address": "Kapittelweg 231",
    "city": "Hilversum",
    "website": null,
    "phone": null,
    "cuisine": "friture",
    "outdoor_seating": null,
    "wheelchair": null,
    "opening_hours": "Mo-Sa 10:30-20:00"
  },
  {
    "osm_id": 4894212114,
    "osm_type": "node",
    "name": "Jan Kruis",
    "amenity": "cafe",
    "lat": 52.2159657,
    "lng": 5.1417123,
    "address": "Kapittelweg 133",
    "city": "Hilversum",
    "website": null,
    "phone": null,
    "cuisine": null,
    "outdoor_seating": null,
    "wheelchair": null,
    "opening_hours": "Mo-Sa 10:30-20:00"
  },
  {
    "osm_id": 4898294645,
    "osm_type": "node",
    "name": "De Egelshoek",
    "amenity": "fast_food",
    "lat": 52.1940103,
    "lng": 5.1542306,
    "address": "Noodweg 52",
    "city": "Hilversum",
    "website": null,
    "phone": null,
    "cuisine": "snackbar;ice_cream;friture",
    "outdoor_seating": null,
    "wheelchair": null,
    "opening_hours": null
  },
  {
    "osm_id": 4950668314,
    "osm_type": "node",
    "name": "Cappuccino",
    "amenity": "cafe",
    "lat": 52.2249692,
    "lng": 5.1768864,
    "address": null,
    "city": null,
    "website": null,
    "phone": null,
    "cuisine": null,
    "outdoor_seating": null,
    "wheelchair": null,
    "opening_hours": null
  },
  {
    "osm_id": 5041036321,
    "osm_type": "node",
    "name": "Leescafe Voorhoeve",
    "amenity": "cafe",
    "lat": 52.2252277,
    "lng": 5.17368,
    "address": null,
    "city": null,
    "website": null,
    "phone": null,
    "cuisine": null,
    "outdoor_seating": null,
    "wheelchair": "yes",
    "opening_hours": null
  },
  {
    "osm_id": 5055995701,
    "osm_type": "node",
    "name": "Goal",
    "amenity": "fast_food",
    "lat": 52.2320777,
    "lng": 5.180277,
    "address": null,
    "city": null,
    "website": null,
    "phone": null,
    "cuisine": null,
    "outdoor_seating": null,
    "wheelchair": null,
    "opening_hours": null
  },
  {
    "osm_id": 5142928026,
    "osm_type": "node",
    "name": "Cafetaria Noord",
    "amenity": "fast_food",
    "lat": 52.2383444,
    "lng": 5.1760944,
    "address": null,
    "city": null,
    "website": null,
    "phone": null,
    "cuisine": null,
    "outdoor_seating": null,
    "wheelchair": null,
    "opening_hours": null
  },
  {
    "osm_id": 5142940223,
    "osm_type": "node",
    "name": "Aspendos",
    "amenity": "fast_food",
    "lat": 52.2271721,
    "lng": 5.1828044,
    "address": null,
    "city": null,
    "website": null,
    "phone": null,
    "cuisine": "kebab",
    "outdoor_seating": null,
    "wheelchair": null,
    "opening_hours": null
  },
  {
    "osm_id": 5422981143,
    "osm_type": "node",
    "name": "McDonald's",
    "amenity": "fast_food",
    "lat": 52.2210592,
    "lng": 5.1443303,
    "address": "Vreelandseweg 42",
    "city": "Hilversum",
    "website": null,
    "phone": null,
    "cuisine": "burger",
    "outdoor_seating": null,
    "wheelchair": null,
    "opening_hours": null
  },
  {
    "osm_id": 5614112432,
    "osm_type": "node",
    "name": "La Petite Creperie",
    "amenity": "restaurant",
    "lat": 52.2160882,
    "lng": 5.1705772,
    "address": null,
    "city": null,
    "website": null,
    "phone": null,
    "cuisine": null,
    "outdoor_seating": null,
    "wheelchair": "yes",
    "opening_hours": null
  },
  {
    "osm_id": 5619369111,
    "osm_type": "node",
    "name": "De Houtoven",
    "amenity": "restaurant",
    "lat": 52.2213472,
    "lng": 5.1786982,
    "address": "Emmastraat 22",
    "city": "Hilversum",
    "website": "https://dehoutoven.nl",
    "phone": "+31 35 623 9994",
    "cuisine": "pizza;italian",
    "outdoor_seating": null,
    "wheelchair": null,
    "opening_hours": "Mo-Su 17:00-22:00"
  },
  {
    "osm_id": 5619369114,
    "osm_type": "node",
    "name": "San Leo",
    "amenity": "restaurant",
    "lat": 52.2213034,
    "lng": 5.1793012,
    "address": null,
    "city": null,
    "website": null,
    "phone": null,
    "cuisine": "italian",
    "outdoor_seating": null,
    "wheelchair": null,
    "opening_hours": null
  },
  {
    "osm_id": 5619369423,
    "osm_type": "node",
    "name": "Pino",
    "amenity": "fast_food",
    "lat": 52.2265217,
    "lng": 5.1772351,
    "address": null,
    "city": null,
    "website": null,
    "phone": null,
    "cuisine": null,
    "outdoor_seating": null,
    "wheelchair": null,
    "opening_hours": null
  },
  {
    "osm_id": 7001297588,
    "osm_type": "node",
    "name": "Juffrouw Jansen",
    "amenity": "cafe",
    "lat": 52.2649714,
    "lng": 5.1323775,
    "address": "Melkmeent 9",
    "city": "Hilversum",
    "website": "https://www.juffrouwjansen.net",
    "phone": "+31 6 42430990",
    "cuisine": "coffee_shop;lunch;drinks",
    "outdoor_seating": "yes",
    "wheelchair": null,
    "opening_hours": "We-Su 10:00-17:00"
  },
  {
    "osm_id": 7528271885,
    "osm_type": "node",
    "name": "Johnny's Burger Company",
    "amenity": "fast_food",
    "lat": 52.2158384,
    "lng": 5.1712551,
    "address": null,
    "city": null,
    "website": "https://www.johnnys.nl",
    "phone": null,
    "cuisine": "burger",
    "outdoor_seating": null,
    "wheelchair": "limited",
    "opening_hours": null
  },
  {
    "osm_id": 8320896829,
    "osm_type": "node",
    "name": "Your Coffee",
    "amenity": "cafe",
    "lat": 52.2257972,
    "lng": 5.1753855,
    "address": "Kerkstraat 38a",
    "city": "Hilversum",
    "website": "https://yourcoffeehilversum.nl",
    "phone": "+31 35 631 5919",
    "cuisine": "coffee_shop;sandwich",
    "outdoor_seating": "yes",
    "wheelchair": null,
    "opening_hours": "Mo-Su 08:30-18:00"
  },
  {
    "osm_id": 8321231065,
    "osm_type": "node",
    "name": "Gouden Land",
    "amenity": "restaurant",
    "lat": 52.2109603,
    "lng": 5.1570958,
    "address": "Admiraal de Ruyterlaan 4",
    "city": "Hilversum",
    "website": "https://www.goudenland-hilversum.nl/",
    "phone": null,
    "cuisine": "chinese",
    "outdoor_seating": null,
    "wheelchair": null,
    "opening_hours": null
  },
  {
    "osm_id": 8321231067,
    "osm_type": "node",
    "name": "Spareriblijn",
    "amenity": "restaurant",
    "lat": 52.2108996,
    "lng": 5.15717,
    "address": "Admiraal de Ruyterlaan 14",
    "city": "Hilversum",
    "website": null,
    "phone": null,
    "cuisine": null,
    "outdoor_seating": null,
    "wheelchair": null,
    "opening_hours": null
  },
  {
    "osm_id": 9330670982,
    "osm_type": "node",
    "name": "Remember the Van",
    "amenity": "fast_food",
    "lat": 52.2129267,
    "lng": 5.192288,
    "address": null,
    "city": null,
    "website": null,
    "phone": null,
    "cuisine": null,
    "outdoor_seating": null,
    "wheelchair": null,
    "opening_hours": null
  },
  {
    "osm_id": 9330735128,
    "osm_type": "node",
    "name": "Koffie Society",
    "amenity": "fast_food",
    "lat": 52.212861,
    "lng": 5.1922368,
    "address": null,
    "city": null,
    "website": null,
    "phone": null,
    "cuisine": null,
    "outdoor_seating": null,
    "wheelchair": null,
    "opening_hours": null
  },
  {
    "osm_id": 9445545418,
    "osm_type": "node",
    "name": "Amaris Rubina Zuiderheide Restaurant",
    "amenity": "restaurant",
    "lat": 52.2130096,
    "lng": 5.152627,
    "address": "Van Ghentlaan 2A",
    "city": "Hilversum",
    "website": null,
    "phone": null,
    "cuisine": null,
    "outdoor_seating": null,
    "wheelchair": null,
    "opening_hours": null
  },
  {
    "osm_id": 9487451666,
    "osm_type": "node",
    "name": "Primo Hilversum",
    "amenity": "restaurant",
    "lat": 52.2263845,
    "lng": 5.1779784,
    "address": "Groest 9B",
    "city": "Hilversum",
    "website": null,
    "phone": null,
    "cuisine": "italian",
    "outdoor_seating": null,
    "wheelchair": null,
    "opening_hours": null
  },
  {
    "osm_id": 9505140479,
    "osm_type": "node",
    "name": "Snackpoint 54",
    "amenity": "fast_food",
    "lat": 52.2147318,
    "lng": 5.1556408,
    "address": "Van Hogendorplaan 26",
    "city": null,
    "website": "https://snackpoint54.nl",
    "phone": "+31 6 40570757",
    "cuisine": "burger;sandwich;kebab;bubble_tea;friture",
    "outdoor_seating": "yes",
    "wheelchair": null,
    "opening_hours": "Mo,We-Su 11:00-22:00; Tu off"
  },
  {
    "osm_id": 9509006141,
    "osm_type": "node",
    "name": "Toko Kerkelanden",
    "amenity": "fast_food",
    "lat": 52.2164377,
    "lng": 5.1407507,
    "address": "Kapittelweg 433",
    "city": "Hilversum",
    "website": null,
    "phone": null,
    "cuisine": null,
    "outdoor_seating": null,
    "wheelchair": null,
    "opening_hours": null
  },
  {
    "osm_id": 10237754074,
    "osm_type": "node",
    "name": "Eetcafé Muze Bij Wisseloord",
    "amenity": "restaurant",
    "lat": 52.2369535,
    "lng": 5.1540542,
    "address": "Catharina van Renneslaan 10",
    "city": "Hilversum",
    "website": "https://eetcafemuze.nl/",
    "phone": "+31 35 626 4441",
    "cuisine": null,
    "outdoor_seating": null,
    "wheelchair": null,
    "opening_hours": "Mo-Sa 11:00-22:00"
  },
  {
    "osm_id": 11236727127,
    "osm_type": "node",
    "name": "Cafetaria De Bonte Koe",
    "amenity": "fast_food",
    "lat": 52.2252714,
    "lng": 5.1753952,
    "address": "Zeedijk 2",
    "city": null,
    "website": "https://cafetariadebontekoe.nl/",
    "phone": "+31 35 205 7417",
    "cuisine": null,
    "outdoor_seating": null,
    "wheelchair": null,
    "opening_hours": "Mo off; Tu-We,Fr 12:00-18:00; Th 12:00-20:00; Sa-Su 12:00-17:00"
  },
  {
    "osm_id": 11277559499,
    "osm_type": "node",
    "name": "HEMA Café",
    "amenity": "cafe",
    "lat": 52.2254181,
    "lng": 5.175731,
    "address": "Kerkstraat 29",
    "city": null,
    "website": null,
    "phone": null,
    "cuisine": null,
    "outdoor_seating": null,
    "wheelchair": null,
    "opening_hours": null
  },
  {
    "osm_id": 11343244976,
    "osm_type": "node",
    "name": "Broodje 270",
    "amenity": "fast_food",
    "lat": 52.2155014,
    "lng": 5.1638204,
    "address": "Gijsbrecht van Amstelstraat 270",
    "city": null,
    "website": null,
    "phone": null,
    "cuisine": "sandwich",
    "outdoor_seating": null,
    "wheelchair": null,
    "opening_hours": "Tu-Sa 08:00-15:00"
  },
  {
    "osm_id": 11486625749,
    "osm_type": "node",
    "name": "Gorkha Restaurant Nepalees & Indiaas",
    "amenity": "restaurant",
    "lat": 52.2223496,
    "lng": 5.1691845,
    "address": "Havenstraat 10",
    "city": "Hilversum",
    "website": "https://gorkharestaurant.nl/",
    "phone": "+31 6 15225217",
    "cuisine": "indian",
    "outdoor_seating": null,
    "wheelchair": "no",
    "opening_hours": null
  },
  {
    "osm_id": 11730296947,
    "osm_type": "node",
    "name": "Pupu Boba",
    "amenity": "cafe",
    "lat": 52.2253985,
    "lng": 5.1748948,
    "address": null,
    "city": null,
    "website": null,
    "phone": "+31 6 33288133",
    "cuisine": "bubble_tea",
    "outdoor_seating": null,
    "wheelchair": null,
    "opening_hours": "Mo-We 12:00-18:00; Th-Su 11:30-18:00"
  },
  {
    "osm_id": 11765703905,
    "osm_type": "node",
    "name": "Mojo",
    "amenity": "restaurant",
    "lat": 52.2254229,
    "lng": 5.1789735,
    "address": null,
    "city": null,
    "website": "https://mo-jo.eu/location/hilversum/",
    "phone": null,
    "cuisine": "japanese",
    "outdoor_seating": null,
    "wheelchair": null,
    "opening_hours": "Mo-Fr 17:00-22:00; Tu off; Sa-Su 12:00-22:00"
  },
  {
    "osm_id": 11874188342,
    "osm_type": "node",
    "name": "Puerto Burrito",
    "amenity": "restaurant",
    "lat": 52.2245875,
    "lng": 5.1783521,
    "address": "Spuisteeg 5",
    "city": null,
    "website": "https://www.puertoburrito.nl/",
    "phone": null,
    "cuisine": "mexican",
    "outdoor_seating": null,
    "wheelchair": null,
    "opening_hours": null
  },
  {
    "osm_id": 12023288153,
    "osm_type": "node",
    "name": "Coffee + Conceptstore",
    "amenity": "restaurant",
    "lat": 52.2158429,
    "lng": 5.1706997,
    "address": null,
    "city": null,
    "website": null,
    "phone": null,
    "cuisine": null,
    "outdoor_seating": null,
    "wheelchair": "limited",
    "opening_hours": "Mo-Fr 09:00-17:00; Sa 09:30-17:00; Su off"
  },
  {
    "osm_id": 12772276229,
    "osm_type": "node",
    "name": "Studio Pasta",
    "amenity": "restaurant",
    "lat": 52.2156527,
    "lng": 5.1686906,
    "address": "Gijsbrecht van Amstelstraat 157",
    "city": null,
    "website": null,
    "phone": "+31 35 737 0665",
    "cuisine": null,
    "outdoor_seating": null,
    "wheelchair": null,
    "opening_hours": "Mo,Su off; Tu-Sa 16:00-21:00"
  },
  {
    "osm_id": 12795494771,
    "osm_type": "node",
    "name": "Vega Paradijs",
    "amenity": "fast_food",
    "lat": 52.2160446,
    "lng": 5.1694169,
    "address": "Gijsbrecht van Amstelstraat 144",
    "city": null,
    "website": null,
    "phone": null,
    "cuisine": "sandwich",
    "outdoor_seating": null,
    "wheelchair": null,
    "opening_hours": null
  },
  {
    "osm_id": 12795494772,
    "osm_type": "node",
    "name": "Your Coffee",
    "amenity": "cafe",
    "lat": 52.2159101,
    "lng": 5.1686383,
    "address": "Gijsbrecht van Amstelstraat 164A-1",
    "city": null,
    "website": null,
    "phone": null,
    "cuisine": "coffee_shop",
    "outdoor_seating": null,
    "wheelchair": "no",
    "opening_hours": "Mo off; Tu-Su 08:30-17:00"
  },
  {
    "osm_id": 12993894621,
    "osm_type": "node",
    "name": "arrêt",
    "amenity": "fast_food",
    "lat": 52.2238683,
    "lng": 5.1726796,
    "address": null,
    "city": null,
    "website": "https://lunchroom-arret.nl/",
    "phone": null,
    "cuisine": "sandwich",
    "outdoor_seating": null,
    "wheelchair": null,
    "opening_hours": "Mo off; Tu-Th 10:00-17:00; Fr-Su 10:00-17:30"
  },
  {
    "osm_id": 221098950,
    "osm_type": "way",
    "name": "Instituut voor Beeld en Geluid",
    "amenity": "cafe",
    "lat": 52.2351136,
    "lng": 5.1731251,
    "address": null,
    "city": null,
    "website": null,
    "phone": null,
    "cuisine": null,
    "outdoor_seating": null,
    "wheelchair": null,
    "opening_hours": null
  },
  {
    "osm_id": 284108091,
    "osm_type": "way",
    "name": "Café 't Tolhuis",
    "amenity": "cafe",
    "lat": 52.2179146,
    "lng": 5.1831738,
    "address": "Soestdijkerstraatweg 2",
    "city": "Hilversum",
    "website": "https://www.tolhuis-hilversum.nl",
    "phone": null,
    "cuisine": null,
    "outdoor_seating": "yes",
    "wheelchair": null,
    "opening_hours": null
  }
]